{
  "R01": {
    "stop_id": "R01",
    "station_id": "1",
    "complex_id": "1",
    "name": "Astoria-Ditmars Blvd",
    "line": "Astoria",
    "borough": "Q",
    "lat": 40.775036,
    "lon": -73.912034,
    "daytime_routes": [
      "N",
      "W"
    ],
    "structure": "Elevated",
    "ada": false
  },
  "R03": {
    "stop_id": "R03",
    "station_id": "2",
    "complex_id": "2",
    "name": "Astoria Blvd",
    "line": "Astoria",
    "borough": "Q",
    "lat": 40.770258,
    "lon": -73.917843,
    "daytime_routes": [
      "N",
      "W"
    ],
    "structure": "Elevated",
    "ada": true
  },
  "R04": {
    "stop_id": "R04",
    "station_id": "3",
    "complex_id": "3",
    "name": "30 Av",
    "line": "Astoria",
    "borough": "Q",
    "lat": 40.766779,
    "lon": -73.921479,
    "daytime_routes": [
      "N",
      "W"
    ],
    "structure": "Elevated",
    "ada": false
  },
  "R05": {
    "stop_id": "R05",
    "station_id": "4",
    "complex_id": "4",
    "name": "Broadway",
    "line": "Astoria",
    "borough": "Q",
    "lat": 40.76182,
    "lon": -73.925508,
    "daytime_routes": [
      "N",
      "W"
    ],
    "structure": "Elevated",
    "ada": false
  },
  "R06": {
    "stop_id": "R06",
    "station_id": "5",
    "complex_id": "5",
    "name": "36 Av",
    "line": "Astoria",
    "borough": "Q",
    "lat": 40.756804,
    "lon": -73.929575,
    "daytime_routes": [
      "N",
      "W"
    ],
    "structure": "Elevated",
    "ada": false
  },
  "R08": {
    "stop_id": "R08",
    "station_id": "6",
    "complex_id": "6",
    "name": "39 Av-Dutch Kills",
    "line": "Astoria",
    "borough": "Q",
    "lat": 40.752882,
    "lon": -73.932755,
    "daytime_routes": [
      "N",
      "W"
    ],
    "structure": "Elevated",
    "ada": false
  },
  "R11": {
    "stop_id": "R11",
    "station_id": "7",
    "complex_id": "613",
    "name": "Lexington Av/59 St",
    "line": "Astoria",
    "borough": "M",
    "lat": 40.76266,
    "lon": -73.967258,
    "daytime_routes": [
      "N",
      "R",
      "W"
    ],
    "structure": "Subway",
    "ada": false
  },
  "R13": {
    "stop_id": "R13",
    "station_id": "8",
    "complex_id": "8",
    "name": "5 Av/59 St",
    "line": "Astoria",
    "borough": "M",
    "lat": 40.764811,
    "lon": -73.973347,
    "daytime_routes": [
      "N",
      "R",
      "W"
    ],
    "structure": "Subway",
    "ada": false
  },
  "R14": {
    "stop_id": "R14",
    "station_id": "9",
    "complex_id": "9",
    "name": "57 St-7 Av",
    "line": "Broadway - Brighton",
    "borough": "M",
    "lat": 40.764664,
    "lon": -73.980658,
    "daytime_routes": [
      "N",
      "Q",
      "R",
      "W"
    ],
    "structure": "Subway",
    "ada": true
  },
  "R15": {
    "stop_id": "R15",
    "station_id": "10",
    "complex_id": "10",
    "name": "49 St",
    "line": "Broadway - Brighton",
    "borough": "M",
    "lat": 40.759901,
    "lon": -73.984139,
    "daytime_routes": [
      "N",
      "R",
      "W"
    ],
    "structure": "Subway",
    "ada": true
  },
  "R16": {
    "stop_id": "R16",
    "station_id": "11",
    "complex_id": "611",
    "name": "Times Sq-42 St",
    "line": "Broadway - Brighton",
    "borough": "M",
    "lat": 40.754672,
    "lon": -73.986754,
    "daytime_routes": [
      "N",
      "Q",
      "R",
      "W"
    ],
    "structure": "Subway",
    "ada": true
  },
  "R17": {
    "stop_id": "R17",
    "station_id": "12",
    "complex_id": "607",
    "name": "34 St-Herald Sq",
    "line": "Broadway - Brighton",
    "borough": "M",
    "lat": 40.749567,
    "lon": -73.98795,
    "daytime_routes": [
      "N",
      "Q",
      "R",
      "W"
    ],
    "structure": "Subway",
    "ada": true
  },
  "R18": {
    "stop_id": "R18",
    "station_id": "13",
    "complex_id": "13",
    "name": "28 St",
    "line": "Broadway - Brighton",
    "borough": "M",
    "lat": 40.745494,
    "lon": -73.988691,
    "daytime_routes": [
      "R",
      "W"
    ],
    "structure": "Subway",
    "ada": false
  },
  "R19": {
    "stop_id": "R19",
    "station_id": "14",
    "complex_id": "14",
    "name": "23 St",
    "line": "Broadway - Brighton",
    "borough": "M",
    "lat": 40.741303,
    "lon": -73.989344,
    "daytime_routes": [
      "R",
      "W"
    ],
    "structure": "Subway",
    "ada": false
  },
  "R20": {
    "stop_id": "R20",
    "station_id": "15",
    "complex_id": "602",
    "name": "14 St-Union Sq",
    "line": "Broadway - Brighton",
    "borough": "M",
    "lat": 40.735736,
    "lon": -73.990568,
    "daytime_routes": [
      "N",
      "Q",
      "R",
      "W"
    ],
    "structure": "Subway",
    "ada": true
  },
  "R21": {
    "stop_id": "R21",
    "station_id": "16",
    "complex_id": "16",
    "name": "8 St-NYU",
    "line": "Broadway - Brighton",
    "borough": "M",
    "lat": 40.730328,
    "lon": -73.992629,
    "daytime_routes": [
      "R",
      "W"
    ],
    "structure": "Subway",
    "ada": false
  },
  "R22": {
    "stop_id": "R22",
    "station_id": "17",
    "complex_id": "17",
    "name": "Prince St",
    "line": "Broadway - Brighton",
    "borough": "M",
    "lat": 40.724329,
    "lon": -73.997702,
    "daytime_routes": [
      "R",
      "W"
    ],
    "structure": "Subway",
    "ada": false
  },
  "R23": {
    "stop_id": "R23",
    "station_id": "18",
    "complex_id": "623",
    "name": "Canal St",
    "line": "Broadway",
    "borough": "M",
    "lat": 40.719527,
    "lon": -74.001775,
    "daytime_routes": [
      "R",
      "W"
    ],
    "structure": "Subway",
    "ada": false
  },
  "Q01": {
    "stop_id": "Q01",
    "station_id": "19",
    "complex_id": "623",
    "name": "Canal St",
    "line": "Manhattan Bridge",
    "borough": "M",
    "lat": 40.718383,
    "lon": -74.00046,
    "daytime_routes": [
      "N",
      "Q"
    ],
    "structure": "Subway",
    "ada": false
  },
  "R24": {
    "stop_id": "R24",
    "station_id": "20",
    "complex_id": "20",
    "name": "City Hall",
    "line": "Broadway",
    "borough": "M",
    "lat": 40.713282,
    "lon": -74.006978,
    "daytime_routes": [
      "R",
      "W"
    ],
    "structure": "Subway",
    "ada": false
  },
  "R25": {
    "stop_id": "R25",
    "station_id": "21",
    "complex_id": "624",
    "name": "Cortlandt St",
    "line": "Broadway",
    "borough": "M",
    "lat": 40.710668,
    "lon": -74.011029,
    "daytime_routes": [
      "R",
      "W"
    ],
    "structure": "Subway",
    "ada": true
  },
  "R26": {
    "stop_id": "R26",
    "station_id": "22",
    "complex_id": "22",
    "name": "Rector St",
    "line": "Broadway",
    "borough": "M",
    "lat": 40.70722,
    "lon": -74.013342,
    "daytime_routes": [
      "R",
      "W"
    ],
    "structure": "Subway",
    "ada": false
  },
  "R27": {
    "stop_id": "R27",
    "station_id": "23",
    "complex_id": "635",
    "name": "Whitehall St-South Ferry",
    "line": "Broadway",
    "borough": "M",
    "lat": 40.703087,
    "lon": -74.012994,
    "daytime_routes": [
      "R",
      "W"
    ],
    "structure": "Subway",
    "ada": false
  },
  "R28": {
    "stop_id": "R28",
    "station_id": "24",
    "complex_id": "620",
    "name": "Court St",
    "line": "Broadway",
    "borough": "Bk",
    "lat": 40.6941,
    "lon": -73.991777,
    "daytime_routes": [
      "R"
    ],
    "structure": "Subway",
    "ada": false
  },
  "R29": {
    "stop_id": "R29",
    "station_id": "25",
    "complex_id": "636",
    "name": "Jay St-MetroTech",
    "line": "Broadway",
    "borough": "Bk",
    "lat": 40.69218,
    "lon": -73.985942,
    "daytime_routes": [
      "R"
    ],
    "structure": "Subway",
    "ada": true
  },
  "R30": {
    "stop_id": "R30",
    "station_id": "26",
    "complex_id": "26",
    "name": "DeKalb Av",
    "line": "Broadway - Brighton",
    "borough": "Bk",
    "lat": 40.690635,
    "lon": -73.981824,
    "daytime_routes": [
      "B",
      "Q",
      "R"
    ],
    "structure": "Subway",
    "ada": true
  },
  "R31": {
    "stop_id": "R31",
    "station_id": "27",
    "complex_id": "617",
    "name": "Atlantic Av-Barclays Ctr",
    "line": "4th Av",
    "borough": "Bk",
    "lat": 40.683666,
    "lon": -73.97881,
    "daytime_routes": [
      "D",
      "N",
      "R"
    ],
    "structure": "Subway",
    "ada": true
  },
  "R32": {
    "stop_id": "R32",
    "station_id": "28",
    "complex_id": "28",
    "name": "Union St",
    "line": "4th Av",
    "borough": "Bk",
    "lat": 40.677316,
    "lon": -73.98311,
    "daytime_routes": [
      "R"
    ],
    "structure": "Subway",
    "ada": false
  },
  "R33": {
    "stop_id": "R33",
    "station_id": "29",
    "complex_id": "608",
    "name": "4 Av-9 St",
    "line": "4th Av",
    "borough": "Bk",
    "lat": 40.670847,
    "lon": -73.988302,
    "daytime_routes": [
      "R"
    ],
    "structure": "Subway",
    "ada": false
  },
  "R34": {
    "stop_id": "R34",
    "station_id": "30",
    "complex_id": "30",
    "name": "Prospect Av",
    "line": "4th Av",
    "borough": "Bk",
    "lat": 40.665414,
    "lon": -73.992872,
    "daytime_routes": [
      "R"
    ],
    "structure": "Subway",
    "ada": false
  },
  "R35": {
    "stop_id": "R35",
    "station_id": "31",
    "complex_id": "31",
    "name": "25 St",
    "line": "4th Av",
    "borough": "Bk",
    "lat": 40.660397,
    "lon": -73.998091,
    "daytime_routes": [
      "R"
    ],
    "structure": "Subway",
    "ada": false
  },
  "R36": {
    "stop_id": "R36",
    "station_id": "32",
    "complex_id": "32",
    "name": "36 St",
    "line": "4th Av",
    "borough": "Bk",
    "lat": 40.655144,
    "lon": -74.003549,
    "daytime_routes": [
      "D",
      "N",
      "R"
    ],
    "structure": "Subway",
    "ada": false
  },
  "R39": {
    "stop_id": "R39",
    "station_id": "33",
    "complex_id": "33",
    "name": "45 St",
    "line": "4th Av",
    "borough": "Bk",
    "lat": 40.648939,
    "lon": -74.010006,
    "daytime_routes": [
      "R"
    ],
    "structure": "Subway",
    "ada": false
  },
  "R40": {
    "stop_id": "R40",
    "station_id": "34",
    "complex_id": "34",
    "name": "53 St",
    "line": "4th Av",
    "borough": "Bk",
    "lat": 40.645069,
    "lon": -74.014034,
    "daytime_routes": [
      "R"
    ],
    "structure": "Subway",
    "ada": false
  },
  "R41": {
    "stop_id": "R41",
    "station_id": "35",
    "complex_id": "35",
    "name": "59 St",
    "line": "4th Av",
    "borough": "Bk",
    "lat": 40.641362,
    "lon": -74.017881,
    "daytime_routes": [
      "N",
      "R"
    ],
    "structure": "Subway",
    "ada": true
  },
  "R42": {
    "stop_id": "R42",
    "station_id": "36",
    "complex_id": "36",
    "name": "Bay Ridge Av",
    "line": "4th Av",
    "borough": "Bk",
    "lat": 40.634967,
    "lon": -74.023377,
    "daytime_routes": [
      "R"
    ],
    "structure": "Subway",
    "ada": false
  },
  "R43": {
    "stop_id": "R43",
    "station_id": "37",
    "complex_id": "37",
    "name": "77 St",
    "line": "4th Av",
    "borough": "Bk",
    "lat": 40.629742,
    "lon": -74.02551,
    "daytime_routes": [
      "R"
    ],
    "structure": "Subway",
    "ada": false
  },
  "R44": {
    "stop_id": "R44",
    "station_id": "38",
    "complex_id": "38",
    "name": "86 St",
    "line": "4th Av",
    "borough": "Bk",
    "lat": 40.622687,
    "lon": -74.028398,
    "daytime_routes": [
      "R"
    ],
    "structure": "Subway",
    "ada": true
  },
  "R45": {
    "stop_id": "R45",
    "station_id": "39",
    "complex_id": "39",
    "name": "Bay Ridge-95 St",
    "line": "4th Av",
    "borough": "Bk",
    "lat": 40.616622,
    "lon": -74.030876,
    "daytime_routes": [
      "R"
    ],
    "structure": "Subway",
    "ada": true
  },
  "D24": {
    "stop_id": "D24",
    "station_id": "40",
    "complex_id": "617",
    "name": "Atlantic Av-Barclays Ctr",
    "line": "Broadway - Brighton",
    "borough": "Bk",
    "lat": 40.68446,
    "lon": -73.97689,
    "daytime_routes": [
      "B",
      "Q"
    ],
    "structure": "Subway",
    "ada": true
  },
  "D25": {
    "stop_id": "D25",
    "station_id": "41",
    "complex_id": "41",
    "name": "7 Av",
    "line": "Broadway - Brighton",
    "borough": "Bk",
    "lat": 40.67705,
    "lon": -73.972367,
    "daytime_routes": [
      "B",
      "Q"
    ],
    "structure": "Subway",
    "ada": false
  },
  "D26": {
    "stop_id": "D26",
    "station_id": "42",
    "complex_id": "42",
    "name": "Prospect Park",
    "line": "Broadway - Brighton",
    "borough": "Bk",
    "lat": 40.661614,
    "lon": -73.962246,
    "daytime_routes": [
      "B",
      "Q",
      "S"
    ],
    "structure": "Open Cut",
    "ada": true
  },
  "D27": {
    "stop_id": "D27",
    "station_id": "43",
    "complex_id": "43",
    "name": "Parkside Av",
    "line": "Broadway - Brighton",
    "borough": "Bk",
    "lat": 40.655292,
    "lon": -73.961495,
    "daytime_routes": [
      "Q"
    ],
    "structure": "Open Cut",
    "ada": false
  },
  "D28": {
    "stop_id": "D28",
    "station_id": "44",
    "complex_id": "44",
    "name": "Church Av",
    "line": "Broadway - Brighton",
    "borough": "Bk",
    "lat": 40.650527,
    "lon": -73.962982,
    "daytime_routes": [
      "B",
      "Q"
    ],
    "structure": "Open Cut",
    "ada": true
  },
  "D29": {
    "stop_id": "D29",
    "station_id": "45",
    "complex_id": "45",
    "name": "Beverley Rd",
    "line": "Broadway - Brighton",
    "borough": "Bk",
    "lat": 40.644031,
    "lon": -73.964492,
    "daytime_routes": [
      "Q"
    ],
    "structure": "Open Cut",
    "ada": false
  },
  "D30": {
    "stop_id": "D30",
    "station_id": "46",
    "complex_id": "46",
    "name": "Cortelyou Rd",
    "line": "Broadway - Brighton",
    "borough": "Bk",
    "lat": 40.640927,
    "lon": -73.963891,
    "daytime_routes": [
      "Q"
    ],
    "structure": "Open Cut",
    "ada": false
  },
  "D31": {
    "stop_id": "D31",
    "station_id": "47",
    "complex_id": "47",
    "name": "Newkirk Plaza",
    "line": "Broadway - Brighton",
    "borough": "Bk",
    "lat": 40.635082,
    "lon": -73.962793,
    "daytime_routes": [
      "B",
      "Q"
    ],
    "structure": "Open Cut",
    "ada": false
  },
  "D32": {
    "stop_id": "D32",
    "station_id": "48",
    "complex_id": "48",
    "name": "Avenue H",
    "line": "Broadway - Brighton",
    "borough": "Bk",
    "lat": 40.62927,
    "lon": -73.961639,
    "daytime_routes": [
      "Q"
    ],
    "structure": "Open Cut",
    "ada": true
  },
  "D33": {
    "stop_id": "D33",
    "station_id": "49",
    "complex_id": "49",
    "name": "Avenue J",
    "line": "Broadway - Brighton",
    "borough": "Bk",
    "lat": 40.625039,
    "lon": -73.960803,
    "daytime_routes": [
      "Q"
    ],
    "structure": "Open Cut",
    "ada": false
  },
  "D34": {
    "stop_id": "D34",
    "station_id": "50",
    "complex_id": "50",
    "name": "Avenue M",
    "line": "Broadway - Brighton",
    "borough": "Bk",
    "lat": 40.617618,
    "lon": -73.959399,
    "daytime_routes": [
      "Q"
    ],
    "structure": "Open Cut",
    "ada": false
  },
  "D35": {
    "stop_id": "D35",
    "station_id": "51",
    "complex_id": "51",
    "name": "Kings Hwy",
    "line": "Broadway - Brighton",
    "borough": "Bk",
    "lat": 40.60867,
    "lon": -73.957734,
    "daytime_routes": [
      "B",
      "Q"
    ],
    "structure": "Open Cut",
    "ada": true
  },
  "D37": {
    "stop_id": "D37",
    "station_id": "52",
    "complex_id": "52",
    "name": "Avenue U",
    "line": "Broadway - Brighton",
    "borough": "Bk",
    "lat": 40.5993,
    "lon": -73.955929,
    "daytime_routes": [
      "Q"
    ],
    "structure": "Open Cut",
    "ada": false
  },
  "D38": {
    "stop_id": "D38",
    "station_id": "53",
    "complex_id": "53",
    "name": "Neck Rd",
    "line": "Broadway - Brighton",
    "borough": "Bk",
    "lat": 40.595246,
    "lon": -73.955161,
    "daytime_routes": [
      "Q"
    ],
    "structure": "Open Cut",
    "ada": false
  },
  "D39": {
    "stop_id": "D39",
    "station_id": "54",
    "complex_id": "54",
    "name": "Sheepshead Bay",
    "line": "Broadway - Brighton",
    "borough": "Bk",
    "lat": 40.586896,
    "lon": -73.954155,
    "daytime_routes": [
      "B",
      "Q"
    ],
    "structure": "Open Cut",
    "ada": true
  },
  "D40": {
    "stop_id": "D40",
    "station_id": "55",
    "complex_id": "55",
    "name": "Brighton Beach",
    "line": "Broadway - Brighton",
    "borough": "Bk",
    "lat": 40.577621,
    "lon": -73.961376,
    "daytime_routes": [
      "B",
      "Q"
    ],
    "structure": "Elevated",
    "ada": false
  },
  "D41": {
    "stop_id": "D41",
    "station_id": "56",
    "complex_id": "56",
    "name": "Ocean Pkwy",
    "line": "Broadway - Brighton",
    "borough": "Bk",
    "lat": 40.576312,
    "lon": -73.968501,
    "daytime_routes": [
      "Q"
    ],
    "structure": "Elevated",
    "ada": false
  },
  "D42": {
    "stop_id": "D42",
    "station_id": "57",
    "complex_id": "57",
    "name": "W 8 St-NY Aquarium",
    "line": "Broadway - Brighton",
    "borough": "Bk",
    "lat": 40.576127,
    "lon": -73.975939,
    "daytime_routes": [
      "F",
      "Q"
    ],
    "structure": "Elevated",
    "ada": false
  },
  "D43": {
    "stop_id": "D43",
    "station_id": "58",
    "complex_id": "58",
    "name": "Coney Island-Stillwell Av",
    "line": "Sea Beach / West End / Culver / Brighton",
    "borough": "Bk",
    "lat": 40.577422,
    "lon": -73.981233,
    "daytime_routes": [
      "D",
      "F",
      "N",
      "Q"
    ],
    "structure": "Viaduct",
    "ada": true
  },
  "B12": {
    "stop_id": "B12",
    "station_id": "59",
    "complex_id": "59",
    "name": "9 Av",
    "line": "West End",
    "borough": "Bk",
    "lat": 40.646292,
    "lon": -73.994324,
    "daytime_routes": [
      "D"
    ],
    "structure": "Open Cut",
    "ada": false
  },
  "B13": {
    "stop_id": "B13",
    "station_id": "60",
    "complex_id": "60",
    "name": "Fort Hamilton Pkwy",
    "line": "West End",
    "borough": "Bk",
    "lat": 40.640914,
    "lon": -73.994304,
    "daytime_routes": [
      "D"
    ],
    "structure": "Elevated",
    "ada": false
  },
  "B14": {
    "stop_id": "B14",
    "station_id": "61",
    "complex_id": "61",
    "name": "50 St",
    "line": "West End",
    "borough": "Bk",
    "lat": 40.63626,
    "lon": -73.994791,
    "daytime_routes": [
      "D"
    ],
    "structure": "Elevated",
    "ada": false
  },
  "B15": {
    "stop_id": "B15",
    "station_id": "62",
    "complex_id": "62",
    "name": "55 St",
    "line": "West End",
    "borough": "Bk",
    "lat": 40.631435,
    "lon": -73.995476,
    "daytime_routes": [
      "D"
    ],
    "structure": "Elevated",
    "ada": false
  },
  "B16": {
    "stop_id": "B16",
    "station_id": "63",
    "complex_id": "615",
    "name": "62 St",
    "line": "West End",
    "borough": "Bk",
    "lat": 40.626472,
    "lon": -73.996895,
    "daytime_routes": [
      "D"
    ],
    "structure": "Elevated",
    "ada": true
  },
  "B17": {
    "stop_id": "B17",
    "station_id": "64",
    "complex_id": "64",
    "name": "71 St",
    "line": "West End",
    "borough": "Bk",
    "lat": 40.619589,
    "lon": -73.998864,
    "daytime_routes": [
      "D"
    ],
    "structure": "Elevated",
    "ada": false
  },
  "B18": {
    "stop_id": "B18",
    "station_id": "65",
    "complex_id": "65",
    "name": "79 St",
    "line": "West End",
    "borough": "Bk",
    "lat": 40.613501,
    "lon": -74.00061,
    "daytime_routes": [
      "D"
    ],
    "structure": "Elevated",
    "ada": false
  },
  "B19": {
    "stop_id": "B19",
    "station_id": "66",
    "complex_id": "66",
    "name": "18 Av",
    "line": "West End",
    "borough": "Bk",
    "lat": 40.607954,
    "lon": -74.001736,
    "daytime_routes": [
      "D"
    ],
    "structure": "Elevated",
    "ada": false
  },
  "B20": {
    "stop_id": "B20",
    "station_id": "67",
    "complex_id": "67",
    "name": "20 Av",
    "line": "West End",
    "borough": "Bk",
    "lat": 40.604556,
    "lon": -73.998168,
    "daytime_routes": [
      "D"
    ],
    "structure": "Elevated",
    "ada": false
  },
  "B21": {
    "stop_id": "B21",
    "station_id": "68",
    "complex_id": "68",
    "name": "Bay Pkwy",
    "line": "West End",
    "borough": "Bk",
    "lat": 40.601875,
    "lon": -73.993728,
    "daytime_routes": [
      "D"
    ],
    "structure": "Elevated",
    "ada": true
  },
  "B22": {
    "stop_id": "B22",
    "station_id": "69",
    "complex_id": "69",
    "name": "25 Av",
    "line": "West End",
    "borough": "Bk",
    "lat": 40.597704,
    "lon": -73.986829,
    "daytime_routes": [
      "D"
    ],
    "structure": "Elevated",
    "ada": false
  },
  "B23": {
    "stop_id": "B23",
    "station_id": "70",
    "complex_id": "70",
    "name": "Bay 50 St",
    "line": "West End",
    "borough": "Bk",
    "lat": 40.588841,
    "lon": -73.983765,
    "daytime_routes": [
      "D"
    ],
    "structure": "Elevated",
    "ada": false
  },
  "N02": {
    "stop_id": "N02",
    "station_id": "71",
    "complex_id": "71",
    "name": "8 Av",
    "line": "Sea Beach",
    "borough": "Bk",
    "lat": 40.635064,
    "lon": -74.011719,
    "daytime_routes": [
      "N"
    ],
    "structure": "Open Cut",
    "ada": true
  },
  "N03": {
    "stop_id": "N03",
    "station_id": "72",
    "complex_id": "72",
    "name": "Fort Hamilton Pkwy",
    "line": "Sea Beach",
    "borough": "Bk",
    "lat": 40.631386,
    "lon": -74.005351,
    "daytime_routes": [
      "N"
    ],
    "structure": "Open Cut",
    "ada": false
  },
  "N04": {
    "stop_id": "N04",
    "station_id": "73",
    "complex_id": "615",
    "name": "New Utrecht Av",
    "line": "Sea Beach",
    "borough": "Bk",
    "lat": 40.624842,
    "lon": -73.996353,
    "daytime_routes": [
      "N"
    ],
    "structure": "Open Cut",
    "ada": true
  },
  "N05": {
    "stop_id": "N05",
    "station_id": "74",
    "complex_id": "74",
    "name": "18 Av",
    "line": "Sea Beach",
    "borough": "Bk",
    "lat": 40.620671,
    "lon": -73.990414,
    "daytime_routes": [
      "N"
    ],
    "structure": "Open Cut",
    "ada": false
  },
  "N06": {
    "stop_id": "N06",
    "station_id": "75",
    "complex_id": "75",
    "name": "20 Av",
    "line": "Sea Beach",
    "borough": "Bk",
    "lat": 40.61741,
    "lon": -73.985026,
    "daytime_routes": [
      "N"
    ],
    "structure": "Open Cut",
    "ada": false
  },
  "N07": {
    "stop_id": "N07",
    "station_id": "76",
    "complex_id": "76",
    "name": "Bay Pkwy",
    "line": "Sea Beach",
    "borough": "Bk",
    "lat": 40.611815,
    "lon": -73.981848,
    "daytime_routes": [
      "N"
    ],
    "structure": "Open Cut",
    "ada": false
  },
  "N08": {
    "stop_id": "N08",
    "station_id": "77",
    "complex_id": "77",
    "name": "Kings Hwy",
    "line": "Sea Beach",
    "borough": "Bk",
    "lat": 40.603923,
    "lon": -73.980353,
    "daytime_routes": [
      "N"
    ],
    "structure": "Open Cut",
    "ada": false
  },
  "N09": {
    "stop_id": "N09",
    "station_id": "78",
    "complex_id": "78",
    "name": "Avenue U",
    "line": "Sea Beach",
    "borough": "Bk",
    "lat": 40.597473,
    "lon": -73.979137,
    "daytime_routes": [
      "N"
    ],
    "structure": "Open Cut",
    "ada": false
  },
  "N10": {
    "stop_id": "N10",
    "station_id": "79",
    "complex_id": "79",
    "name": "86 St",
    "line": "Sea Beach",
    "borough": "Bk",
    "lat": 40.592721,
    "lon": -73.97823,
    "daytime_routes": [
      "N"
    ],
    "structure": "Open Cut",
    "ada": false
  },
  "J12": {
    "stop_id": "J12",
    "station_id": "80",
    "complex_id": "80",
    "name": "121 St",
    "line": "Jamaica",
    "borough": "Q",
    "lat": 40.700492,
    "lon": -73.828294,
    "daytime_routes": [
      "J",
      "Z"
    ],
    "structure": "Elevated",
    "ada": false
  },
  "J13": {
    "stop_id": "J13",
    "station_id": "81",
    "complex_id": "81",
    "name": "111 St",
    "line": "Jamaica",
    "borough": "Q",
    "lat": 40.697418,
    "lon": -73.836345,
    "daytime_routes": [
      "J"
    ],
    "structure": "Elevated",
    "ada": false
  },
  "J14": {
    "stop_id": "J14",
    "station_id": "82",
    "complex_id": "82",
    "name": "104 St",
    "line": "Jamaica",
    "borough": "Q",
    "lat": 40.695178,
    "lon": -73.84433,
    "daytime_routes": [
      "J",
      "Z"
    ],
    "structure": "Elevated",
    "ada": false
  },
  "J15": {
    "stop_id": "J15",
    "station_id": "83",
    "complex_id": "83",
    "name": "Woodhaven Blvd",
    "line": "Jamaica",
    "borough": "Q",
    "lat": 40.693879,
    "lon": -73.851576,
    "daytime_routes": [
      "J",
      "Z"
    ],
    "structure": "Elevated",
    "ada": true
  },
  "J16": {
    "stop_id": "J16",
    "station_id": "84",
    "complex_id": "84",
    "name": "85 St-Forest Pkwy",
    "line": "Jamaica",
    "borough": "Q",
    "lat": 40.692435,
    "lon": -73.86001,
    "daytime_routes": [
      "J"
    ],
    "structure": "Elevated",
    "ada": false
  },
  "J17": {
    "stop_id": "J17",
    "station_id": "85",
    "complex_id": "85",
    "name": "75 St-Elderts Ln",
    "line": "Jamaica",
    "borough": "Q",
    "lat": 40.691324,
    "lon": -73.867139,
    "daytime_routes": [
      "J",
      "Z"
    ],
    "structure": "Elevated",
    "ada": false
  },
  "J19": {
    "stop_id": "J19",
    "station_id": "86",
    "complex_id": "86",
    "name": "Cypress Hills",
    "line": "Jamaica",
    "borough": "Bk",
    "lat": 40.689941,
    "lon": -73.87255,
    "daytime_routes": [
      "J"
    ],
    "structure": "Elevated",
    "ada": false
  },
  "J20": {
    "stop_id": "J20",
    "station_id": "87",
    "complex_id": "87",
    "name": "Crescent St",
    "line": "Jamaica",
    "borough": "Bk",
    "lat": 40.683194,
    "lon": -73.873785,
    "daytime_routes": [
      "J",
      "Z"
    ],
    "structure": "Elevated",
    "ada": false
  },
  "J21": {
    "stop_id": "J21",
    "station_id": "88",
    "complex_id": "88",
    "name": "Norwood Av",
    "line": "Jamaica",
    "borough": "Bk",
    "lat": 40.68141,
    "lon": -73.880039,
    "daytime_routes": [
      "J",
      "Z"
    ],
    "structure": "Elevated",
    "ada": false
  },
  "J22": {
    "stop_id": "J22",
    "station_id": "89",
    "complex_id": "89",
    "name": "Cleveland St",
    "line": "Jamaica",
    "borough": "Bk",
    "lat": 40.679947,
    "lon": -73.884639,
    "daytime_routes": [
      "J"
    ],
    "structure": "Elevated",
    "ada": false
  },
  "J23": {
    "stop_id": "J23",
    "station_id": "90",
    "complex_id": "90",
    "name": "Van Siclen Av",
    "line": "Jamaica",
    "borough": "Bk",
    "lat": 40.678024,
    "lon": -73.891688,
    "daytime_routes": [
      "J",
      "Z"
    ],
    "structure": "Elevated",
    "ada": false
  },
  "J24": {
    "stop_id": "J24",
    "station_id": "91",
    "complex_id": "91",
    "name": "Alabama Av",
    "line": "Jamaica",
    "borough": "Bk",
    "lat": 40.676992,
    "lon": -73.898654,
    "daytime_routes": [
      "J",
      "Z"
    ],
    "structure": "Elevated",
    "ada": false
  },
  "J27": {
    "stop_id": "J27",
    "station_id": "92",
    "complex_id": "621",
    "name": "Broadway Junction",
    "line": "Jamaica",
    "borough": "Bk",
    "lat": 40.679498,
    "lon": -73.904512,
    "daytime_routes": [
      "J",
      "Z"
    ],
    "structure": "Elevated",
    "ada": false
  },
  "J28": {
    "stop_id": "J28",
    "station_id": "93",
    "complex_id": "93",
    "name": "Chauncey St",
    "line": "Jamaica",
    "borough": "Bk",
    "lat": 40.682893,
    "lon": -73.910456,
    "daytime_routes": [
      "J",
      "Z"
    ],
    "structure": "Elevated",
    "ada": false
  },
  "J29": {
    "stop_id": "J29",
    "station_id": "94",
    "complex_id": "94",
    "name": "Halsey St",
    "line": "Jamaica",
    "borough": "Bk",
    "lat": 40.68637,
    "lon": -73.916559,
    "daytime_routes": [
      "J"
    ],
    "structure": "Elevated",
    "ada": false
  },
  "J30": {
    "stop_id": "J30",
    "station_id": "95",
    "complex_id": "95",
    "name": "Gates Av",
    "line": "Jamaica",
    "borough": "Bk",
    "lat": 40.68963,
    "lon": -73.92227,
    "daytime_routes": [
      "J",
      "Z"
    ],
    "structure": "Elevated",
    "ada": false
  },
  "J31": {
    "stop_id": "J31",
    "station_id": "96",
    "complex_id": "96",
    "name": "Kosciuszko St",
    "line": "Jamaica",
    "borough": "Bk",
    "lat": 40.693342,
    "lon": -73.928814,
    "daytime_routes": [
      "J"
    ],
    "structure": "Elevated",
    "ada": false
  },
  "M11": {
    "stop_id": "M11",
    "station_id": "97",
    "complex_id": "97",
    "name": "Myrtle Av",
    "line": "Jamaica",
    "borough": "Bk",
    "lat": 40.697207,
    "lon": -73.935657,
    "daytime_routes": [
      "M",
      "J",
      "Z"
    ],
    "structure": "Elevated",
    "ada": false
  },
  "M12": {
    "stop_id": "M12",
    "station_id": "98",
    "complex_id": "98",
    "name": "Flushing Av",
    "line": "Jamaica",
    "borough": "Bk",
    "lat": 40.70026,
    "lon": -73.941126,
    "daytime_routes": [
      "M",
      "J"
    ],
    "structure": "Elevated",
    "ada": true
  },
  "M13": {
    "stop_id": "M13",
    "station_id": "99",
    "complex_id": "99",
    "name": "Lorimer St",
    "line": "Jamaica",
    "borough": "Bk",
    "lat": 40.703869,
    "lon": -73.947408,
    "daytime_routes": [
      "M",
      "J"
    ],
    "structure": "Elevated",
    "ada": false
  },
  "M14": {
    "stop_id": "M14",
    "station_id": "100",
    "complex_id": "100",
    "name": "Hewes St",
    "line": "Jamaica",
    "borough": "Bk",
    "lat": 40.70687,
    "lon": -73.953431,
    "daytime_routes": [
      "M",
      "J"
    ],
    "structure": "Elevated",
    "ada": false
  },
  "M16": {
    "stop_id": "M16",
    "station_id": "101",
    "complex_id": "101",
    "name": "Marcy Av",
    "line": "Jamaica",
    "borough": "Bk",
    "lat": 40.708359,
    "lon": -73.957757,
    "daytime_routes": [
      "M",
      "J",
      "Z"
    ],
    "structure": "Elevated",
    "ada": true
  },
  "M18": {
    "stop_id": "M18",
    "station_id": "102",
    "complex_id": "625",
    "name": "Delancey St-Essex St",
    "line": "Jamaica",
    "borough": "M",
    "lat": 40.718315,
    "lon": -73.987437,
    "daytime_routes": [
      "M",
      "J",
      "Z"
    ],
    "structure": "Subway",
    "ada": false
  },
  "M19": {
    "stop_id": "M19",
    "station_id": "103",
    "complex_id": "103",
    "name": "Bowery",
    "line": "Jamaica",
    "borough": "M",
    "lat": 40.72028,
    "lon": -73.993915,
    "daytime_routes": [
      "J",
      "Z"
    ],
    "structure": "Subway",
    "ada": false
  },
  "M20": {
    "stop_id": "M20",
    "station_id": "104",
    "complex_id": "623",
    "name": "Canal St",
    "line": "Jamaica",
    "borough": "M",
    "lat": 40.718092,
    "lon": -73.999892,
    "daytime_routes": [
      "J",
      "Z"
    ],
    "structure": "Subway",
    "ada": false
  },
  "M21": {
    "stop_id": "M21",
    "station_id": "105",
    "complex_id": "622",
    "name": "Chambers St",
    "line": "Jamaica",
    "borough": "M",
    "lat": 40.713243,
    "lon": -74.003401,
    "daytime_routes": [
      "J",
      "Z"
    ],
    "structure": "Subway",
    "ada": true
  },
  "M22": {
    "stop_id": "M22",
    "station_id": "106",
    "complex_id": "628",
    "name": "Fulton St",
    "line": "Jamaica",
    "borough": "M",
    "lat": 40.710374,
    "lon": -74.007582,
    "daytime_routes": [
      "J",
      "Z"
    ],
    "structure": "Subway",
    "ada": true
  },
  "M23": {
    "stop_id": "M23",
    "station_id": "107",
    "complex_id": "107",
    "name": "Broad St",
    "line": "Jamaica",
    "borough": "M",
    "lat": 40.706476,
    "lon": -74.011056,
    "daytime_routes": [
      "J",
      "Z"
    ],
    "structure": "Subway",
    "ada": false
  },
  "M01": {
    "stop_id": "M01",
    "station_id": "108",
    "complex_id": "108",
    "name": "Middle Village-Metropolitan Av",
    "line": "Myrtle Av",
    "borough": "Q",
    "lat": 40.711396,
    "lon": -73.889601,
    "daytime_routes": [
      "M"
    ],
    "structure": "Elevated",
    "ada": true
  },
  "M04": {
    "stop_id": "M04",
    "station_id": "109",
    "complex_id": "109",
    "name": "Fresh Pond Rd",
    "line": "Myrtle Av",
    "borough": "Q",
    "lat": 40.706186,
    "lon": -73.895877,
    "daytime_routes": [
      "M"
    ],
    "structure": "Elevated",
    "ada": false
  },
  "M05": {
    "stop_id": "M05",
    "station_id": "110",
    "complex_id": "110",
    "name": "Forest Av",
    "line": "Myrtle Av",
    "borough": "Q",
    "lat": 40.704423,
    "lon": -73.903077,
    "daytime_routes": [
      "M"
    ],
    "structure": "Elevated",
    "ada": false
  },
  "M06": {
    "stop_id": "M06",
    "station_id": "111",
    "complex_id": "111",
    "name": "Seneca Av",
    "line": "Myrtle Av",
    "borough": "Q",
    "lat": 40.702762,
    "lon": -73.90774,
    "daytime_routes": [
      "M"
    ],
    "structure": "Elevated",
    "ada": false
  },
  "M08": {
    "stop_id": "M08",
    "station_id": "112",
    "complex_id": "630",
    "name": "Myrtle-Wyckoff Avs",
    "line": "Myrtle Av",
    "borough": "Bk",
    "lat": 40.69943,
    "lon": -73.912385,
    "daytime_routes": [
      "M"
    ],
    "structure": "Elevated",
    "ada": true
  },
  "M09": {
    "stop_id": "M09",
    "station_id": "113",
    "complex_id": "113",
    "name": "Knickerbocker Av",
    "line": "Myrtle Av",
    "borough": "Bk",
    "lat": 40.698664,
    "lon": -73.919711,
    "daytime_routes": [
      "M"
    ],
    "structure": "Elevated",
    "ada": false
  },
  "M10": {
    "stop_id": "M10",
    "station_id": "114",
    "complex_id": "114",
    "name": "Central Av",
    "line": "Myrtle Av",
    "borough": "Bk",
    "lat": 40.697857,
    "lon": -73.927397,
    "daytime_routes": [
      "M"
    ],
    "structure": "Elevated",
    "ada": false
  },
  "L01": {
    "stop_id": "L01",
    "station_id": "115",
    "complex_id": "618",
    "name": "8 Av",
    "line": "Canarsie",
    "borough": "M",
    "lat": 40.739777,
    "lon": -74.002578,
    "daytime_routes": [
      "L"
    ],
    "structure": "Subway",
    "ada": true
  },
  "L02": {
    "stop_id": "L02",
    "station_id": "116",
    "complex_id": "601",
    "name": "6 Av",
    "line": "Canarsie",
    "borough": "M",
    "lat": 40.737335,
    "lon": -73.996786,
    "daytime_routes": [
      "L"
    ],
    "structure": "Subway",
    "ada": true
  },
  "L03": {
    "stop_id": "L03",
    "station_id": "117",
    "complex_id": "602",
    "name": "14 St-Union Sq",
    "line": "Canarsie",
    "borough": "M",
    "lat": 40.734789,
    "lon": -73.99073,
    "daytime_routes": [
      "L"
    ],
    "structure": "Subway",
    "ada": true
  },
  "L05": {
    "stop_id": "L05",
    "station_id": "118",
    "complex_id": "118",
    "name": "3 Av",
    "line": "Canarsie",
    "borough": "M",
    "lat": 40.732849,
    "lon": -73.986122,
    "daytime_routes": [
      "L"
    ],
    "structure": "Subway",
    "ada": false
  },
  "L06": {
    "stop_id": "L06",
    "station_id": "119",
    "complex_id": "119",
    "name": "1 Av",
    "line": "Canarsie",
    "borough": "M",
    "lat": 40.730953,
    "lon": -73.981628,
    "daytime_routes": [
      "L"
    ],
    "structure": "Subway",
    "ada": true
  },
  "L08": {
    "stop_id": "L08",
    "station_id": "120",
    "complex_id": "120",
    "name": "Bedford Av",
    "line": "Canarsie",
    "borough": "Bk",
    "lat": 40.717304,
    "lon": -73.956872,
    "daytime_routes": [
      "L"
    ],
    "structure": "Subway",
    "ada": true
  },
  "L10": {
    "stop_id": "L10",
    "station_id": "121",
    "complex_id": "629",
    "name": "Lorimer St",
    "line": "Canarsie",
    "borough": "Bk",
    "lat": 40.714063,
    "lon": -73.950275,
    "daytime_routes": [
      "L"
    ],
    "structure": "Subway",
    "ada": true
  },
  "L11": {
    "stop_id": "L11",
    "station_id": "122",
    "complex_id": "122",
    "name": "Graham Av",
    "line": "Canarsie",
    "borough": "Bk",
    "lat": 40.714565,
    "lon": -73.944053,
    "daytime_routes": [
      "L"
    ],
    "structure": "Subway",
    "ada": false
  },
  "L12": {
    "stop_id": "L12",
    "station_id": "123",
    "complex_id": "123",
    "name": "Grand St",
    "line": "Canarsie",
    "borough": "Bk",
    "lat": 40.711926,
    "lon": -73.94067,
    "daytime_routes": [
      "L"
    ],
    "structure": "Subway",
    "ada": true
  },
  "L13": {
    "stop_id": "L13",
    "station_id": "124",
    "complex_id": "124",
    "name": "Montrose Av",
    "line": "Canarsie",
    "borough": "Bk",
    "lat": 40.707739,
    "lon": -73.93985,
    "daytime_routes": [
      "L"
    ],
    "structure": "Subway",
    "ada": false
  },
  "L14": {
    "stop_id": "L14",
    "station_id": "125",
    "complex_id": "125",
    "name": "Morgan Av",
    "line": "Canarsie",
    "borough": "Bk",
    "lat": 40.706152,
    "lon": -73.933147,
    "daytime_routes": [
      "L"
    ],
    "structure": "Subway",
    "ada": false
  },
  "L15": {
    "stop_id": "L15",
    "station_id": "126",
    "complex_id": "126",
    "name": "Jefferson St",
    "line": "Canarsie",
    "borough": "Bk",
    "lat": 40.706607,
    "lon": -73.922913,
    "daytime_routes": [
      "L"
    ],
    "structure": "Subway",
    "ada": false
  },
  "L16": {
    "stop_id": "L16",
    "station_id": "127",
    "complex_id": "127",
    "name": "DeKalb Av",
    "line": "Canarsie",
    "borough": "Bk",
    "lat": 40.703811,
    "lon": -73.918425,
    "daytime_routes": [
      "L"
    ],
    "structure": "Subway",
    "ada": false
  },
  "L17": {
    "stop_id": "L17",
    "station_id": "128",
    "complex_id": "630",
    "name": "Myrtle-Wyckoff Avs",
    "line": "Canarsie",
    "borough": "Bk",
    "lat": 40.699814,
    "lon": -73.911586,
    "daytime_routes": [
      "L"
    ],
    "structure": "Subway",
    "ada": true
  },
  "L19": {
    "stop_id": "L19",
    "station_id": "129",
    "complex_id": "129",
    "name": "Halsey St",
    "line": "Canarsie",
    "borough": "Q",
    "lat": 40.695602,
    "lon": -73.904084,
    "daytime_routes": [
      "L"
    ],
    "structure": "Subway",
    "ada": false
  },
  "L20": {
    "stop_id": "L20",
    "station_id": "130",
    "complex_id": "130",
    "name": "Wilson Av",
    "line": "Canarsie",
    "borough": "Bk",
    "lat": 40.688764,
    "lon": -73.904046,
    "daytime_routes": [
      "L"
    ],
    "structure": "Subway",
    "ada": true
  },
  "L21": {
    "stop_id": "L21",
    "station_id": "131",
    "complex_id": "131",
    "name": "Bushwick Av-Aberdeen St",
    "line": "Canarsie",
    "borough": "Bk",
    "lat": 40.682829,
    "lon": -73.905249,
    "daytime_routes": [
      "L"
    ],
    "structure": "Subway",
    "ada": false
  },
  "L22": {
    "stop_id": "L22",
    "station_id": "132",
    "complex_id": "621",
    "name": "Broadway Junction",
    "line": "Canarsie",
    "borough": "Bk",
    "lat": 40.678856,
    "lon": -73.90324,
    "daytime_routes": [
      "L"
    ],
    "structure": "Elevated",
    "ada": false
  },
  "L24": {
    "stop_id": "L24",
    "station_id": "133",
    "complex_id": "133",
    "name": "Atlantic Av",
    "line": "Canarsie",
    "borough": "Bk",
    "lat": 40.675345,
    "lon": -73.903097,
    "daytime_routes": [
      "L"
    ],
    "structure": "Elevated",
    "ada": false
  },
  "L25": {
    "stop_id": "L25",
    "station_id": "134",
    "complex_id": "134",
    "name": "Sutter Av",
    "line": "Canarsie",
    "borough": "Bk",
    "lat": 40.669367,
    "lon": -73.901975,
    "daytime_routes": [
      "L"
    ],
    "structure": "Elevated",
    "ada": false
  },
  "L26": {
    "stop_id": "L26",
    "station_id": "135",
    "complex_id": "135",
    "name": "Livonia Av",
    "line": "Canarsie",
    "borough": "Bk",
    "lat": 40.664038,
    "lon": -73.900571,
    "daytime_routes": [
      "L"
    ],
    "structure": "Elevated",
    "ada": true
  },
  "L27": {
    "stop_id": "L27",
    "station_id": "136",
    "complex_id": "136",
    "name": "New Lots Av",
    "line": "Canarsie",
    "borough": "Bk",
    "lat": 40.658733,
    "lon": -73.899232,
    "daytime_routes": [
      "L"
    ],
    "structure": "Elevated",
    "ada": false
  },
  "L28": {
    "stop_id": "L28",
    "station_id": "137",
    "complex_id": "137",
    "name": "East 105 St",
    "line": "Canarsie",
    "borough": "Bk",
    "lat": 40.650573,
    "lon": -73.899485,
    "daytime_routes": [
      "L"
    ],
    "structure": "At Grade",
    "ada": false
  },
  "L29": {
    "stop_id": "L29",
    "station_id": "138",
    "complex_id": "138",
    "name": "Canarsie-Rockaway Pkwy",
    "line": "Canarsie",
    "borough": "Bk",
    "lat": 40.646654,
    "lon": -73.90185,
    "daytime_routes": [
      "L"
    ],
    "structure": "At Grade",
    "ada": true
  },
  "S01": {
    "stop_id": "S01",
    "station_id": "139",
    "complex_id": "627",
    "name": "Franklin Av",
    "line": "Franklin Shuttle",
    "borough": "Bk",
    "lat": 40.680596,
    "lon": -73.955827,
    "daytime_routes": [
      "S"
    ],
    "structure": "Elevated",
    "ada": true
  },
  "S03": {
    "stop_id": "S03",
    "station_id": "141",
    "complex_id": "141",
    "name": "Park Pl",
    "line": "Franklin Shuttle",
    "borough": "Bk",
    "lat": 40.674772,
    "lon": -73.957624,
    "daytime_routes": [
      "S"
    ],
    "structure": "Open Cut",
    "ada": true
  },
  "S04": {
    "stop_id": "S04",
    "station_id": "142",
    "complex_id": "626",
    "name": "Botanic Garden",
    "line": "Franklin Shuttle",
    "borough": "Bk",
    "lat": 40.670343,
    "lon": -73.959245,
    "daytime_routes": [
      "S"
    ],
    "structure": "Open Cut",
    "ada": false
  },
  "A02": {
    "stop_id": "A02",
    "station_id": "143",
    "complex_id": "143",
    "name": "Inwood-207 St",
    "line": "8th Av - Fulton St",
    "borough": "M",
    "lat": 40.868072,
    "lon": -73.919899,
    "daytime_routes": [
      "A"
    ],
    "structure": "Subway",
    "ada": true
  },
  "A03": {
    "stop_id": "A03",
    "station_id": "144",
    "complex_id": "144",
    "name": "Dyckman St",
    "line": "8th Av - Fulton St",
    "borough": "M",
    "lat": 40.865491,
    "lon": -73.927271,
    "daytime_routes": [
      "A"
    ],
    "structure": "Subway",
    "ada": false
  },
  "A05": {
    "stop_id": "A05",
    "station_id": "145",
    "complex_id": "145",
    "name": "190 St",
    "line": "8th Av - Fulton St",
    "borough": "M",
    "lat": 40.859022,
    "lon": -73.93418,
    "daytime_routes": [
      "A"
    ],
    "structure": "Subway",
    "ada": false
  },
  "A06": {
    "stop_id": "A06",
    "station_id": "146",
    "complex_id": "146",
    "name": "181 St",
    "line": "8th Av - Fulton St",
    "borough": "M",
    "lat": 40.851695,
    "lon": -73.937969,
    "daytime_routes": [
      "A"
    ],
    "structure": "Subway",
    "ada": true
  },
  "A07": {
    "stop_id": "A07",
    "station_id": "147",
    "complex_id": "147",
    "name": "175 St",
    "line": "8th Av - Fulton St",
    "borough": "M",
    "lat": 40.847391,
    "lon": -73.939704,
    "daytime_routes": [
      "A"
    ],
    "structure": "Subway",
    "ada": true
  },
  "A09": {
    "stop_id": "A09",
    "station_id": "148",
    "complex_id": "605",
    "name": "168 St",
    "line": "8th Av - Fulton St",
    "borough": "M",
    "lat": 40.840719,
    "lon": -73.939561,
    "daytime_routes": [
      "A",
      "C"
    ],
    "structure": "Subway",
    "ada": true
  },
  "A10": {
    "stop_id": "A10",
    "station_id": "149",
    "complex_id": "149",
    "name": "163 St-Amsterdam Av",
    "line": "8th Av - Fulton St",
    "borough": "M",
    "lat": 40.836013,
    "lon": -73.939892,
    "daytime_routes": [
      "C"
    ],
    "structure": "Subway",
    "ada": false
  },
  "A11": {
    "stop_id": "A11",
    "station_id": "150",
    "complex_id": "150",
    "name": "155 St",
    "line": "8th Av - Fulton St",
    "borough": "M",
    "lat": 40.830518,
    "lon": -73.941514,
    "daytime_routes": [
      "C"
    ],
    "structure": "Subway",
    "ada": false
  },
  "A12": {
    "stop_id": "A12",
    "station_id": "151",
    "complex_id": "151",
    "name": "145 St",
    "line": "8th Av - Fulton St",
    "borough": "M",
    "lat": 40.824783,
    "lon": -73.944216,
    "daytime_routes": [
      "A",
      "C"
    ],
    "structure": "Subway",
    "ada": false
  },
  "D13": {
    "stop_id": "D13",
    "station_id": "151",
    "complex_id": "151",
    "name": "145 St",
    "line": "Concourse",
    "borough": "M",
    "lat": 40.824783,
    "lon": -73.944216,
    "daytime_routes": [
      "B",
      "D"
    ],
    "structure": "Subway",
    "ada": false
  },
  "A14": {
    "stop_id": "A14",
    "station_id": "152",
    "complex_id": "152",
    "name": "135 St",
    "line": "8th Av - Fulton St",
    "borough": "M",
    "lat": 40.817894,
    "lon": -73.947649,
    "daytime_routes": [
      "C",
      "B"
    ],
    "structure": "Subway",
    "ada": false
  },
  "A15": {
    "stop_id": "A15",
    "station_id": "153",
    "complex_id": "153",
    "name": "125 St",
    "line": "8th Av - Fulton St",
    "borough": "M",
    "lat": 40.811109,
    "lon": -73.952343,
    "daytime_routes": [
      "A",
      "C",
      "B",
      "D"
    ],
    "structure": "Subway",
    "ada": true
  },
  "A16": {
    "stop_id": "A16",
    "station_id": "154",
    "complex_id": "154",
    "name": "116 St",
    "line": "8th Av - Fulton St",
    "borough": "M",
    "lat": 40.805085,
    "lon": -73.954882,
    "daytime_routes": [
      "C",
      "B"
    ],
    "structure": "Subway",
    "ada": false
  },
  "A17": {
    "stop_id": "A17",
    "station_id": "155",
    "complex_id": "155",
    "name": "Cathedral Pkwy (110 St)",
    "line": "8th Av - Fulton St",
    "borough": "M",
    "lat": 40.800603,
    "lon": -73.958161,
    "daytime_routes": [
      "C",
      "B"
    ],
    "structure": "Subway",
    "ada": false
  },
  "A18": {
    "stop_id": "A18",
    "station_id": "156",
    "complex_id": "156",
    "name": "103 St",
    "line": "8th Av - Fulton St",
    "borough": "M",
    "lat": 40.796092,
    "lon": -73.961454,
    "daytime_routes": [
      "C",
      "B"
    ],
    "structure": "Subway",
    "ada": false
  },
  "A19": {
    "stop_id": "A19",
    "station_id": "157",
    "complex_id": "157",
    "name": "96 St",
    "line": "8th Av - Fulton St",
    "borough": "M",
    "lat": 40.791642,
    "lon": -73.964696,
    "daytime_routes": [
      "C",
      "B"
    ],
    "structure": "Subway",
    "ada": false
  },
  "A20": {
    "stop_id": "A20",
    "station_id": "158",
    "complex_id": "158",
    "name": "86 St",
    "line": "8th Av - Fulton St",
    "borough": "M",
    "lat": 40.785868,
    "lon": -73.968916,
    "daytime_routes": [
      "C",
      "B"
    ],
    "structure": "Subway",
    "ada": false
  },
  "A21": {
    "stop_id": "A21",
    "station_id": "159",
    "complex_id": "159",
    "name": "81 St-Museum of Natural History",
    "line": "8th Av - Fulton St",
    "borough": "M",
    "lat": 40.781433,
    "lon": -73.972143,
    "daytime_routes": [
      "C",
      "B"
    ],
    "structure": "Subway",
    "ada": false
  },
  "A22": {
    "stop_id": "A22",
    "station_id": "160",
    "complex_id": "160",
    "name": "72 St",
    "line": "8th Av - Fulton St",
    "borough": "M",
    "lat": 40.775594,
    "lon": -73.97641,
    "daytime_routes": [
      "C",
      "B"
    ],
    "structure": "Subway",
    "ada": false
  },
  "A24": {
    "stop_id": "A24",
    "station_id": "161",
    "complex_id": "614",
    "name": "59 St-Columbus Circle",
    "line": "8th Av - Fulton St",
    "borough": "M",
    "lat": 40.768296,
    "lon": -73.981736,
    "daytime_routes": [
      "A",
      "C",
      "B",
      "D"
    ],
    "structure": "Subway",
    "ada": true
  },
  "A25": {
    "stop_id": "A25",
    "station_id": "162",
    "complex_id": "162",
    "name": "50 St",
    "line": "8th Av - Fulton St",
    "borough": "M",
    "lat": 40.762456,
    "lon": -73.985984,
    "daytime_routes": [
      "C",
      "E"
    ],
    "structure": "Subway",
    "ada": true
  },
  "A27": {
    "stop_id": "A27",
    "station_id": "163",
    "complex_id": "611",
    "name": "42 St-Port Authority Bus Terminal",
    "line": "8th Av - Fulton St",
    "borough": "M",
    "lat": 40.757308,
    "lon": -73.989735,
    "daytime_routes": [
      "A",
      "C",
      "E"
    ],
    "structure": "Subway",
    "ada": true
  },
  "A28": {
    "stop_id": "A28",
    "station_id": "164",
    "complex_id": "164",
    "name": "34 St-Penn Station",
    "line": "8th Av - Fulton St",
    "borough": "M",
    "lat": 40.752287,
    "lon": -73.993391,
    "daytime_routes": [
      "A",
      "C",
      "E"
    ],
    "structure": "Subway",
    "ada": true
  },
  "A30": {
    "stop_id": "A30",
    "station_id": "165",
    "complex_id": "165",
    "name": "23 St",
    "line": "8th Av - Fulton St",
    "borough": "M",
    "lat": 40.745906,
    "lon": -73.998041,
    "daytime_routes": [
      "C",
      "E"
    ],
    "structure": "Subway",
    "ada": false
  },
  "A31": {
    "stop_id": "A31",
    "station_id": "166",
    "complex_id": "618",
    "name": "14 St",
    "line": "8th Av - Fulton St",
    "borough": "M",
    "lat": 40.740893,
    "lon": -74.00169,
    "daytime_routes": [
      "A",
      "C",
      "E"
    ],
    "structure": "Subway",
    "ada": true
  },
  "A32": {
    "stop_id": "A32",
    "station_id": "167",
    "complex_id": "167",
    "name": "W 4 St-Wash Sq",
    "line": "8th Av - Fulton St",
    "borough": "M",
    "lat": 40.732338,
    "lon": -74.000495,
    "daytime_routes": [
      "A",
      "C",
      "E"
    ],
    "structure": "Subway",
    "ada": true
  },
  "D20": {
    "stop_id": "D20",
    "station_id": "167",
    "complex_id": "167",
    "name": "W 4 St-Wash Sq",
    "line": "6th Av - Culver",
    "borough": "M",
    "lat": 40.732338,
    "lon": -74.000495,
    "daytime_routes": [
      "B",
      "D",
      "F",
      "M"
    ],
    "structure": "Subway",
    "ada": true
  },
  "A33": {
    "stop_id": "A33",
    "station_id": "168",
    "complex_id": "168",
    "name": "Spring St",
    "line": "8th Av - Fulton St",
    "borough": "M",
    "lat": 40.726227,
    "lon": -74.003739,
    "daytime_routes": [
      "C",
      "E"
    ],
    "structure": "Subway",
    "ada": true
  },
  "A34": {
    "stop_id": "A34",
    "station_id": "169",
    "complex_id": "169",
    "name": "Canal St",
    "line": "8th Av - Fulton St",
    "borough": "M",
    "lat": 40.720824,
    "lon": -74.005229,
    "daytime_routes": [
      "A",
      "C",
      "E"
    ],
    "structure": "Subway",
    "ada": false
  },
  "A36": {
    "stop_id": "A36",
    "station_id": "170",
    "complex_id": "624",
    "name": "Chambers St",
    "line": "8th Av - Fulton St",
    "borough": "M",
    "lat": 40.714111,
    "lon": -74.008585,
    "daytime_routes": [
      "A",
      "C"
    ],
    "structure": "Subway",
    "ada": false
  },
  "E01": {
    "stop_id": "E01",
    "station_id": "171",
    "complex_id": "624",
    "name": "World Trade Center",
    "line": "8th Av - Fulton St",
    "borough": "M",
    "lat": 40.712582,
    "lon": -74.009781,
    "daytime_routes": [
      "E"
    ],
    "structure": "Subway",
    "ada": true
  },
  "A38": {
    "stop_id": "A38",
    "station_id": "172",
    "complex_id": "628",
    "name": "Fulton St",
    "line": "8th Av - Fulton St",
    "borough": "M",
    "lat": 40.710197,
    "lon": -74.007691,
    "daytime_routes": [
      "A",
      "C"
    ],
    "structure": "Subway",
    "ada": true
  },
  "A40": {
    "stop_id": "A40",
    "station_id": "173",
    "complex_id": "173",
    "name": "High St",
    "line": "8th Av - Fulton St",
    "borough": "Bk",
    "lat": 40.699337,
    "lon": -73.990531,
    "daytime_routes": [
      "A",
      "C"
    ],
    "structure": "Subway",
    "ada": false
  },
  "A41": {
    "stop_id": "A41",
    "station_id": "174",
    "complex_id": "636",
    "name": "Jay St-MetroTech",
    "line": "8th Av - Fulton St",
    "borough": "Bk",
    "lat": 40.692338,
    "lon": -73.987342,
    "daytime_routes": [
      "A",
      "C",
      "F"
    ],
    "structure": "Subway",
    "ada": true
  },
  "A42": {
    "stop_id": "A42",
    "station_id": "175",
    "complex_id": "175",
    "name": "Hoyt-Schermerhorn Sts",
    "line": "8th Av - Fulton St",
    "borough": "Bk",
    "lat": 40.688484,
    "lon": -73.985001,
    "daytime_routes": [
      "A",
      "C",
      "G"
    ],
    "structure": "Subway",
    "ada": false
  },
  "A43": {
    "stop_id": "A43",
    "station_id": "176",
    "complex_id": "176",
    "name": "Lafayette Av",
    "line": "8th Av - Fulton St",
    "borough": "Bk",
    "lat": 40.686113,
    "lon": -73.973946,
    "daytime_routes": [
      "C"
    ],
    "structure": "Subway",
    "ada": false
  },
  "A44": {
    "stop_id": "A44",
    "station_id": "177",
    "complex_id": "177",
    "name": "Clinton-Washington Avs",
    "line": "8th Av - Fulton St",
    "borough": "Bk",
    "lat": 40.683263,
    "lon": -73.965838,
    "daytime_routes": [
      "C"
    ],
    "structure": "Subway",
    "ada": false
  },
  "A45": {
    "stop_id": "A45",
    "station_id": "178",
    "complex_id": "627",
    "name": "Franklin Av",
    "line": "8th Av - Fulton St",
    "borough": "Bk",
    "lat": 40.68138,
    "lon": -73.956848,
    "daytime_routes": [
      "C"
    ],
    "structure": "Subway",
    "ada": true
  },
  "A46": {
    "stop_id": "A46",
    "station_id": "179",
    "complex_id": "179",
    "name": "Nostrand Av",
    "line": "8th Av - Fulton St",
    "borough": "Bk",
    "lat": 40.680438,
    "lon": -73.950426,
    "daytime_routes": [
      "A",
      "C"
    ],
    "structure": "Subway",
    "ada": false
  },
  "A47": {
    "stop_id": "A47",
    "station_id": "180",
    "complex_id": "180",
    "name": "Kingston-Throop Avs",
    "line": "8th Av - Fulton St",
    "borough": "Bk",
    "lat": 40.679921,
    "lon": -73.940858,
    "daytime_routes": [
      "C"
    ],
    "structure": "Subway",
    "ada": false
  },
  "A48": {
    "stop_id": "A48",
    "station_id": "181",
    "complex_id": "181",
    "name": "Utica Av",
    "line": "8th Av - Fulton St",
    "borough": "Bk",
    "lat": 40.679364,
    "lon": -73.930729,
    "daytime_routes": [
      "A",
      "C"
    ],
    "structure": "Subway",
    "ada": true
  },
  "A49": {
    "stop_id": "A49",
    "station_id": "182",
    "complex_id": "182",
    "name": "Ralph Av",
    "line": "8th Av - Fulton St",
    "borough": "Bk",
    "lat": 40.678822,
    "lon": -73.920786,
    "daytime_routes": [
      "C"
    ],
    "structure": "Subway",
    "ada": false
  },
  "A50": {
    "stop_id": "A50",
    "station_id": "183",
    "complex_id": "183",
    "name": "Rockaway Av",
    "line": "8th Av - Fulton St",
    "borough": "Bk",
    "lat": 40.67834,
    "lon": -73.911946,
    "daytime_routes": [
      "C"
    ],
    "structure": "Subway",
    "ada": false
  },
  "A51": {
    "stop_id": "A51",
    "station_id": "184",
    "complex_id": "621",
    "name": "Broadway Junction",
    "line": "8th Av - Fulton St",
    "borough": "Bk",
    "lat": 40.678334,
    "lon": -73.905316,
    "daytime_routes": [
      "A",
      "C"
    ],
    "structure": "Subway",
    "ada": false
  },
  "A52": {
    "stop_id": "A52",
    "station_id": "185",
    "complex_id": "185",
    "name": "Liberty Av",
    "line": "8th Av - Fulton St",
    "borough": "Bk",
    "lat": 40.674542,
    "lon": -73.896548,
    "daytime_routes": [
      "C"
    ],
    "structure": "Subway",
    "ada": false
  },
  "A53": {
    "stop_id": "A53",
    "station_id": "186",
    "complex_id": "186",
    "name": "Van Siclen Av",
    "line": "8th Av - Fulton St",
    "borough": "Bk",
    "lat": 40.67271,
    "lon": -73.890358,
    "daytime_routes": [
      "C"
    ],
    "structure": "Subway",
    "ada": false
  },
  "A54": {
    "stop_id": "A54",
    "station_id": "187",
    "complex_id": "187",
    "name": "Shepherd Av",
    "line": "8th Av - Fulton St",
    "borough": "Bk",
    "lat": 40.67413,
    "lon": -73.88075,
    "daytime_routes": [
      "C"
    ],
    "structure": "Subway",
    "ada": false
  },
  "A55": {
    "stop_id": "A55",
    "station_id": "188",
    "complex_id": "188",
    "name": "Euclid Av",
    "line": "8th Av - Fulton St",
    "borough": "Bk",
    "lat": 40.675377,
    "lon": -73.872106,
    "daytime_routes": [
      "A",
      "C"
    ],
    "structure": "Subway",
    "ada": true
  },
  "A57": {
    "stop_id": "A57",
    "station_id": "189",
    "complex_id": "189",
    "name": "Grant Av",
    "line": "Liberty Av",
    "borough": "Bk",
    "lat": 40.677044,
    "lon": -73.86505,
    "daytime_routes": [
      "A"
    ],
    "structure": "Subway",
    "ada": false
  },
  "A59": {
    "stop_id": "A59",
    "station_id": "190",
    "complex_id": "190",
    "name": "80 St",
    "line": "Liberty Av",
    "borough": "Q",
    "lat": 40.679371,
    "lon": -73.858992,
    "daytime_routes": [
      "A"
    ],
    "structure": "Elevated",
    "ada": false
  },
  "A60": {
    "stop_id": "A60",
    "station_id": "191",
    "complex_id": "191",
    "name": "88 St",
    "line": "Liberty Av",
    "borough": "Q",
    "lat": 40.679843,
    "lon": -73.85147,
    "daytime_routes": [
      "A"
    ],
    "structure": "Elevated",
    "ada": false
  },
  "A61": {
    "stop_id": "A61",
    "station_id": "192",
    "complex_id": "192",
    "name": "Rockaway Blvd",
    "line": "Liberty Av",
    "borough": "Q",
    "lat": 40.680429,
    "lon": -73.843853,
    "daytime_routes": [
      "A"
    ],
    "structure": "Elevated",
    "ada": true
  },
  "A63": {
    "stop_id": "A63",
    "station_id": "193",
    "complex_id": "193",
    "name": "104 St",
    "line": "Liberty Av",
    "borough": "Q",
    "lat": 40.681711,
    "lon": -73.837683,
    "daytime_routes": [
      "A"
    ],
    "structure": "Elevated",
    "ada": false
  },
  "A64": {
    "stop_id": "A64",
    "station_id": "194",
    "complex_id": "194",
    "name": "111 St",
    "line": "Liberty Av",
    "borough": "Q",
    "lat": 40.684331,
    "lon": -73.832163,
    "daytime_routes": [
      "A"
    ],
    "structure": "Elevated",
    "ada": false
  },
  "A65": {
    "stop_id": "A65",
    "station_id": "195",
    "complex_id": "195",
    "name": "Ozone Park-Lefferts Blvd",
    "line": "Liberty Av",
    "borough": "Q",
    "lat": 40.685951,
    "lon": -73.825798,
    "daytime_routes": [
      "A"
    ],
    "structure": "Elevated",
    "ada": true
  },
  "H01": {
    "stop_id": "H01",
    "station_id": "196",
    "complex_id": "196",
    "name": "Aqueduct Racetrack",
    "line": "Rockaway",
    "borough": "Q",
    "lat": 40.672097,
    "lon": -73.835919,
    "daytime_routes": [
      "A"
    ],
    "structure": "At Grade",
    "ada": true
  },
  "H02": {
    "stop_id": "H02",
    "station_id": "197",
    "complex_id": "197",
    "name": "Aqueduct-N Conduit Av",
    "line": "Rockaway",
    "borough": "Q",
    "lat": 40.668234,
    "lon": -73.834058,
    "daytime_routes": [
      "A"
    ],
    "structure": "At Grade",
    "ada": false
  },
  "H03": {
    "stop_id": "H03",
    "station_id": "198",
    "complex_id": "198",
    "name": "Howard Beach-JFK Airport",
    "line": "Rockaway",
    "borough": "Q",
    "lat": 40.660476,
    "lon": -73.830301,
    "daytime_routes": [
      "A"
    ],
    "structure": "At Grade",
    "ada": true
  },
  "H04": {
    "stop_id": "H04",
    "station_id": "199",
    "complex_id": "199",
    "name": "Broad Channel",
    "line": "Rockaway",
    "borough": "Q",
    "lat": 40.608382,
    "lon": -73.815925,
    "daytime_routes": [
      "A",
      "S"
    ],
    "structure": "At Grade",
    "ada": false
  },
  "H12": {
    "stop_id": "H12",
    "station_id": "200",
    "complex_id": "200",
    "name": "Beach 90 St",
    "line": "Rockaway",
    "borough": "Q",
    "lat": 40.588034,
    "lon": -73.813641,
    "daytime_routes": [
      "A",
      "S"
    ],
    "structure": "Viaduct",
    "ada": false
  },
  "H13": {
    "stop_id": "H13",
    "station_id": "201",
    "complex_id": "201",
    "name": "Beach 98 St",
    "line": "Rockaway",
    "borough": "Q",
    "lat": 40.585307,
    "lon": -73.820558,
    "daytime_routes": [
      "A",
      "S"
    ],
    "structure": "Viaduct",
    "ada": false
  },
  "H14": {
    "stop_id": "H14",
    "station_id": "202",
    "complex_id": "202",
    "name": "Beach 105 St",
    "line": "Rockaway",
    "borough": "Q",
    "lat": 40.583209,
    "lon": -73.827559,
    "daytime_routes": [
      "A",
      "S"
    ],
    "structure": "Viaduct",
    "ada": false
  },
  "H15": {
    "stop_id": "H15",
    "station_id": "203",
    "complex_id": "203",
    "name": "Rockaway Park-Beach 116 St",
    "line": "Rockaway",
    "borough": "Q",
    "lat": 40.580903,
    "lon": -73.835592,
    "daytime_routes": [
      "A",
      "S"
    ],
    "structure": "At Grade",
    "ada": true
  },
  "H06": {
    "stop_id": "H06",
    "station_id": "204",
    "complex_id": "204",
    "name": "Beach 67 St",
    "line": "Rockaway",
    "borough": "Q",
    "lat": 40.590927,
    "lon": -73.796924,
    "daytime_routes": [
      "A"
    ],
    "structure": "Viaduct",
    "ada": true
  },
  "H07": {
    "stop_id": "H07",
    "station_id": "205",
    "complex_id": "205",
    "name": "Beach 60 St",
    "line": "Rockaway",
    "borough": "Q",
    "lat": 40.592374,
    "lon": -73.788522,
    "daytime_routes": [
      "A"
    ],
    "structure": "Viaduct",
    "ada": false
  },
  "H08": {
    "stop_id": "H08",
    "station_id": "206",
    "complex_id": "206",
    "name": "Beach 44 St",
    "line": "Rockaway",
    "borough": "Q",
    "lat": 40.592943,
    "lon": -73.776013,
    "daytime_routes": [
      "A"
    ],
    "structure": "Viaduct",
    "ada": false
  },
  "H09": {
    "stop_id": "H09",
    "station_id": "207",
    "complex_id": "207",
    "name": "Beach 36 St",
    "line": "Rockaway",
    "borough": "Q",
    "lat": 40.595398,
    "lon": -73.768175,
    "daytime_routes": [
      "A"
    ],
    "structure": "Viaduct",
    "ada": false
  },
  "H10": {
    "stop_id": "H10",
    "station_id": "208",
    "complex_id": "208",
    "name": "Beach 25 St",
    "line": "Rockaway",
    "borough": "Q",
    "lat": 40.600066,
    "lon": -73.761353,
    "daytime_routes": [
      "A"
    ],
    "structure": "Viaduct",
    "ada": false
  },
  "H11": {
    "stop_id": "H11",
    "station_id": "209",
    "complex_id": "209",
    "name": "Far Rockaway-Mott Av",
    "line": "Rockaway",
    "borough": "Q",
    "lat": 40.603995,
    "lon": -73.755405,
    "daytime_routes": [
      "A"
    ],
    "structure": "Viaduct",
    "ada": true
  },
  "D01": {
    "stop_id": "D01",
    "station_id": "210",
    "complex_id": "210",
    "name": "Norwood-205 St",
    "line": "Concourse",
    "borough": "Bx",
    "lat": 40.874811,
    "lon": -73.878855,
    "daytime_routes": [
      "D"
    ],
    "structure": "Subway",
    "ada": false
  },
  "D03": {
    "stop_id": "D03",
    "station_id": "211",
    "complex_id": "211",
    "name": "Bedford Park Blvd",
    "line": "Concourse",
    "borough": "Bx",
    "lat": 40.873244,
    "lon": -73.887138,
    "daytime_routes": [
      "B",
      "D"
    ],
    "structure": "Subway",
    "ada": true
  },
  "D04": {
    "stop_id": "D04",
    "station_id": "212",
    "complex_id": "212",
    "name": "Kingsbridge Rd",
    "line": "Concourse",
    "borough": "Bx",
    "lat": 40.866978,
    "lon": -73.893509,
    "daytime_routes": [
      "B",
      "D"
    ],
    "structure": "Subway",
    "ada": true
  },
  "D05": {
    "stop_id": "D05",
    "station_id": "213",
    "complex_id": "213",
    "name": "Fordham Rd",
    "line": "Concourse",
    "borough": "Bx",
    "lat": 40.861296,
    "lon": -73.897749,
    "daytime_routes": [
      "B",
      "D"
    ],
    "structure": "Subway",
    "ada": false
  },
  "D06": {
    "stop_id": "D06",
    "station_id": "214",
    "complex_id": "214",
    "name": "182-183 Sts",
    "line": "Concourse",
    "borough": "Bx",
    "lat": 40.856093,
    "lon": -73.900741,
    "daytime_routes": [
      "B",
      "D"
    ],
    "structure": "Subway",
    "ada": false
  },
  "D07": {
    "stop_id": "D07",
    "station_id": "215",
    "complex_id": "215",
    "name": "Tremont Av",
    "line": "Concourse",
    "borough": "Bx",
    "lat": 40.85041,
    "lon": -73.905227,
    "daytime_routes": [
      "B",
      "D"
    ],
    "structure": "Subway",
    "ada": true
  },
  "D08": {
    "stop_id": "D08",
    "station_id": "216",
    "complex_id": "216",
    "name": "174-175 Sts",
    "line": "Concourse",
    "borough": "Bx",
    "lat": 40.8459,
    "lon": -73.910136,
    "daytime_routes": [
      "B",
      "D"
    ],
    "structure": "Subway",
    "ada": false
  },
  "D09": {
    "stop_id": "D09",
    "station_id": "217",
    "complex_id": "217",
    "name": "170 St",
    "line": "Concourse",
    "borough": "Bx",
    "lat": 40.839306,
    "lon": -73.9134,
    "daytime_routes": [
      "B",
      "D"
    ],
    "structure": "Subway",
    "ada": false
  },
  "D10": {
    "stop_id": "D10",
    "station_id": "218",
    "complex_id": "218",
    "name": "167 St",
    "line": "Concourse",
    "borough": "Bx",
    "lat": 40.833771,
    "lon": -73.91844,
    "daytime_routes": [
      "B",
      "D"
    ],
    "structure": "Subway",
    "ada": false
  },
  "D11": {
    "stop_id": "D11",
    "station_id": "219",
    "complex_id": "604",
    "name": "161 St-Yankee Stadium",
    "line": "Concourse",
    "borough": "Bx",
    "lat": 40.827905,
    "lon": -73.925651,
    "daytime_routes": [
      "B",
      "D"
    ],
    "structure": "Subway",
    "ada": true
  },
  "D12": {
    "stop_id": "D12",
    "station_id": "220",
    "complex_id": "220",
    "name": "155 St",
    "line": "Concourse",
    "borough": "M",
    "lat": 40.830135,
    "lon": -73.938209,
    "daytime_routes": [
      "B",
      "D"
    ],
    "structure": "Subway",
    "ada": false
  },
  "B04": {
    "stop_id": "B04",
    "station_id": "221",
    "complex_id": "221",
    "name": "21 St-Queensbridge",
    "line": "63rd St",
    "borough": "Q",
    "lat": 40.754203,
    "lon": -73.942836,
    "daytime_routes": [
      "M"
    ],
    "structure": "Subway",
    "ada": true
  },
  "B06": {
    "stop_id": "B06",
    "station_id": "222",
    "complex_id": "222",
    "name": "Roosevelt Island",
    "line": "63rd St",
    "borough": "M",
    "lat": 40.759145,
    "lon": -73.95326,
    "daytime_routes": [
      "M"
    ],
    "structure": "Subway",
    "ada": true
  },
  "B08": {
    "stop_id": "B08",
    "station_id": "223",
    "complex_id": "223",
    "name": "Lexington Av/63 St",
    "line": "63rd St",
    "borough": "M",
    "lat": 40.764629,
    "lon": -73.966113,
    "daytime_routes": [
      "M",
      "Q"
    ],
    "structure": "Subway",
    "ada": true
  },
  "B10": {
    "stop_id": "B10",
    "station_id": "224",
    "complex_id": "224",
    "name": "57 St",
    "line": "6th Av - Culver",
    "borough": "M",
    "lat": 40.763972,
    "lon": -73.97745,
    "daytime_routes": [
      "M"
    ],
    "structure": "Subway",
    "ada": true
  },
  "D15": {
    "stop_id": "D15",
    "station_id": "225",
    "complex_id": "225",
    "name": "47-50 Sts-Rockefeller Ctr",
    "line": "6th Av - Culver",
    "borough": "M",
    "lat": 40.758663,
    "lon": -73.981329,
    "daytime_routes": [
      "B",
      "D",
      "F",
      "M"
    ],
    "structure": "Subway",
    "ada": true
  },
  "D16": {
    "stop_id": "D16",
    "station_id": "226",
    "complex_id": "609",
    "name": "42 St-Bryant Pk",
    "line": "6th Av - Culver",
    "borough": "M",
    "lat": 40.754222,
    "lon": -73.984569,
    "daytime_routes": [
      "B",
      "D",
      "F",
      "M"
    ],
    "structure": "Subway",
    "ada": false
  },
  "D17": {
    "stop_id": "D17",
    "station_id": "227",
    "complex_id": "607",
    "name": "34 St-Herald Sq",
    "line": "6th Av - Culver",
    "borough": "M",
    "lat": 40.749719,
    "lon": -73.987823,
    "daytime_routes": [
      "B",
      "D",
      "F",
      "M"
    ],
    "structure": "Subway",
    "ada": true
  },
  "D18": {
    "stop_id": "D18",
    "station_id": "228",
    "complex_id": "228",
    "name": "23 St",
    "line": "6th Av - Culver",
    "borough": "M",
    "lat": 40.742878,
    "lon": -73.992821,
    "daytime_routes": [
      "F",
      "M"
    ],
    "structure": "Subway",
    "ada": false
  },
  "D19": {
    "stop_id": "D19",
    "station_id": "229",
    "complex_id": "601",
    "name": "14 St",
    "line": "6th Av - Culver",
    "borough": "M",
    "lat": 40.738228,
    "lon": -73.996209,
    "daytime_routes": [
      "F",
      "M"
    ],
    "structure": "Subway",
    "ada": true
  },
  "D21": {
    "stop_id": "D21",
    "station_id": "230",
    "complex_id": "619",
    "name": "Broadway-Lafayette St",
    "line": "6th Av - Culver",
    "borough": "M",
    "lat": 40.725297,
    "lon": -73.996204,
    "daytime_routes": [
      "B",
      "D",
      "F",
      "M"
    ],
    "structure": "Subway",
    "ada": true
  },
  "D22": {
    "stop_id": "D22",
    "station_id": "231",
    "complex_id": "231",
    "name": "Grand St",
    "line": "6th Av - Culver",
    "borough": "M",
    "lat": 40.718267,
    "lon": -73.993753,
    "daytime_routes": [
      "B",
      "D"
    ],
    "structure": "Subway",
    "ada": false
  },
  "F14": {
    "stop_id": "F14",
    "station_id": "232",
    "complex_id": "232",
    "name": "2 Av",
    "line": "6th Av - Culver",
    "borough": "M",
    "lat": 40.723402,
    "lon": -73.989938,
    "daytime_routes": [
      "F"
    ],
    "structure": "Subway",
    "ada": false
  },
  "F15": {
    "stop_id": "F15",
    "station_id": "233",
    "complex_id": "625",
    "name": "Delancey St-Essex St",
    "line": "6th Av - Culver",
    "borough": "M",
    "lat": 40.718611,
    "lon": -73.988114,
    "daytime_routes": [
      "F"
    ],
    "structure": "Subway",
    "ada": false
  },
  "F16": {
    "stop_id": "F16",
    "station_id": "234",
    "complex_id": "234",
    "name": "East Broadway",
    "line": "6th Av - Culver",
    "borough": "M",
    "lat": 40.713715,
    "lon": -73.990173,
    "daytime_routes": [
      "F"
    ],
    "structure": "Subway",
    "ada": false
  },
  "F18": {
    "stop_id": "F18",
    "station_id": "235",
    "complex_id": "235",
    "name": "York St",
    "line": "6th Av - Culver",
    "borough": "Bk",
    "lat": 40.701397,
    "lon": -73.986751,
    "daytime_routes": [
      "F"
    ],
    "structure": "Subway",
    "ada": false
  },
  "F20": {
    "stop_id": "F20",
    "station_id": "236",
    "complex_id": "236",
    "name": "Bergen St",
    "line": "6th Av - Culver",
    "borough": "Bk",
    "lat": 40.686145,
    "lon": -73.990862,
    "daytime_routes": [
      "F",
      "G"
    ],
    "structure": "Subway",
    "ada": false
  },
  "F21": {
    "stop_id": "F21",
    "station_id": "237",
    "complex_id": "237",
    "name": "Carroll St",
    "line": "6th Av - Culver",
    "borough": "Bk",
    "lat": 40.680303,
    "lon": -73.995048,
    "daytime_routes": [
      "F",
      "G"
    ],
    "structure": "Subway",
    "ada": false
  },
  "F22": {
    "stop_id": "F22",
    "station_id": "238",
    "complex_id": "238",
    "name": "Smith-9 Sts",
    "line": "6th Av - Culver",
    "borough": "Bk",
    "lat": 40.67358,
    "lon": -73.995959,
    "daytime_routes": [
      "F",
      "G"
    ],
    "structure": "Viaduct",
    "ada": false
  },
  "F23": {
    "stop_id": "F23",
    "station_id": "239",
    "complex_id": "608",
    "name": "4 Av-9 St",
    "line": "6th Av - Culver",
    "borough": "Bk",
    "lat": 40.670272,
    "lon": -73.989779,
    "daytime_routes": [
      "F",
      "G"
    ],
    "structure": "Viaduct",
    "ada": false
  },
  "F24": {
    "stop_id": "F24",
    "station_id": "240",
    "complex_id": "240",
    "name": "7 Av",
    "line": "6th Av - Culver",
    "borough": "Bk",
    "lat": 40.666271,
    "lon": -73.980305,
    "daytime_routes": [
      "F",
      "G"
    ],
    "structure": "Subway",
    "ada": true
  },
  "F25": {
    "stop_id": "F25",
    "station_id": "241",
    "complex_id": "241",
    "name": "15 St-Prospect Park",
    "line": "6th Av - Culver",
    "borough": "Bk",
    "lat": 40.660365,
    "lon": -73.979493,
    "daytime_routes": [
      "F",
      "G"
    ],
    "structure": "Subway",
    "ada": false
  },
  "F26": {
    "stop_id": "F26",
    "station_id": "242",
    "complex_id": "242",
    "name": "Fort Hamilton Pkwy",
    "line": "6th Av - Culver",
    "borough": "Bk",
    "lat": 40.650782,
    "lon": -73.975776,
    "daytime_routes": [
      "F",
      "G"
    ],
    "structure": "Subway",
    "ada": false
  },
  "F27": {
    "stop_id": "F27",
    "station_id": "243",
    "complex_id": "243",
    "name": "Church Av",
    "line": "6th Av - Culver",
    "borough": "Bk",
    "lat": 40.644041,
    "lon": -73.979678,
    "daytime_routes": [
      "F",
      "G"
    ],
    "structure": "Subway",
    "ada": true
  },
  "F29": {
    "stop_id": "F29",
    "station_id": "244",
    "complex_id": "244",
    "name": "Ditmas Av",
    "line": "6th Av - Culver",
    "borough": "Bk",
    "lat": 40.636119,
    "lon": -73.978172,
    "daytime_routes": [
      "F"
    ],
    "structure": "Elevated",
    "ada": false
  },
  "F30": {
    "stop_id": "F30",
    "station_id": "245",
    "complex_id": "245",
    "name": "18 Av",
    "line": "6th Av - Culver",
    "borough": "Bk",
    "lat": 40.629755,
    "lon": -73.976971,
    "daytime_routes": [
      "F"
    ],
    "structure": "Elevated",
    "ada": false
  },
  "F31": {
    "stop_id": "F31",
    "station_id": "246",
    "complex_id": "246",
    "name": "Avenue I",
    "line": "6th Av - Culver",
    "borough": "Bk",
    "lat": 40.625322,
    "lon": -73.976127,
    "daytime_routes": [
      "F"
    ],
    "structure": "Elevated",
    "ada": false
  },
  "F32": {
    "stop_id": "F32",
    "station_id": "247",
    "complex_id": "247",
    "name": "Bay Pkwy",
    "line": "6th Av - Culver",
    "borough": "Bk",
    "lat": 40.620769,
    "lon": -73.975264,
    "daytime_routes": [
      "F"
    ],
    "structure": "Elevated",
    "ada": false
  },
  "F33": {
    "stop_id": "F33",
    "station_id": "248",
    "complex_id": "248",
    "name": "Avenue N",
    "line": "6th Av - Culver",
    "borough": "Bk",
    "lat": 40.61514,
    "lon": -73.974197,
    "daytime_routes": [
      "F"
    ],
    "structure": "Elevated",
    "ada": false
  },
  "F34": {
    "stop_id": "F34",
    "station_id": "249",
    "complex_id": "249",
    "name": "Avenue P",
    "line": "6th Av - Culver",
    "borough": "Bk",
    "lat": 40.608944,
    "lon": -73.973022,
    "daytime_routes": [
      "F"
    ],
    "structure": "Elevated",
    "ada": false
  },
  "F35": {
    "stop_id": "F35",
    "station_id": "250",
    "complex_id": "250",
    "name": "Kings Hwy",
    "line": "6th Av - Culver",
    "borough": "Bk",
    "lat": 40.603217,
    "lon": -73.972361,
    "daytime_routes": [
      "F"
    ],
    "structure": "Elevated",
    "ada": false
  },
  "F36": {
    "stop_id": "F36",
    "station_id": "251",
    "complex_id": "251",
    "name": "Avenue U",
    "line": "6th Av - Culver",
    "borough": "Bk",
    "lat": 40.596063,
    "lon": -73.973357,
    "daytime_routes": [
      "F"
    ],
    "structure": "Elevated",
    "ada": false
  },
  "F38": {
    "stop_id": "F38",
    "station_id": "252",
    "complex_id": "252",
    "name": "Avenue X",
    "line": "6th Av - Culver",
    "borough": "Bk",
    "lat": 40.58962,
    "lon": -73.97425,
    "daytime_routes": [
      "F"
    ],
    "structure": "Elevated",
    "ada": false
  },
  "F39": {
    "stop_id": "F39",
    "station_id": "253",
    "complex_id": "253",
    "name": "Neptune Av",
    "line": "6th Av - Culver",
    "borough": "Bk",
    "lat": 40.581011,
    "lon": -73.974574,
    "daytime_routes": [
      "F"
    ],
    "structure": "Elevated",
    "ada": false
  },
  "F01": {
    "stop_id": "F01",
    "station_id": "254",
    "complex_id": "254",
    "name": "Jamaica-179 St",
    "line": "Queens Blvd",
    "borough": "Q",
    "lat": 40.712646,
    "lon": -73.783817,
    "daytime_routes": [
      "F"
    ],
    "structure": "Subway",
    "ada": true
  },
  "F02": {
    "stop_id": "F02",
    "station_id": "255",
    "complex_id": "255",
    "name": "169 St",
    "line": "Queens Blvd",
    "borough": "Q",
    "lat": 40.71047,
    "lon": -73.793604,
    "daytime_routes": [
      "F"
    ],
    "structure": "Subway",
    "ada": false
  },
  "F03": {
    "stop_id": "F03",
    "station_id": "256",
    "complex_id": "256",
    "name": "Parsons Blvd",
    "line": "Queens Blvd",
    "borough": "Q",
    "lat": 40.707564,
    "lon": -73.803326,
    "daytime_routes": [
      "F"
    ],
    "structure": "Subway",
    "ada": false
  },
  "F04": {
    "stop_id": "F04",
    "station_id": "257",
    "complex_id": "257",
    "name": "Sutphin Blvd",
    "line": "Queens Blvd",
    "borough": "Q",
    "lat": 40.70546,
    "lon": -73.810708,
    "daytime_routes": [
      "F"
    ],
    "structure": "Subway",
    "ada": false
  },
  "F05": {
    "stop_id": "F05",
    "station_id": "258",
    "complex_id": "258",
    "name": "Briarwood",
    "line": "Queens Blvd",
    "borough": "Q",
    "lat": 40.709179,
    "lon": -73.820574,
    "daytime_routes": [
      "E",
      "F"
    ],
    "structure": "Subway",
    "ada": false
  },
  "F06": {
    "stop_id": "F06",
    "station_id": "259",
    "complex_id": "259",
    "name": "Kew Gardens-Union Tpke",
    "line": "Queens Blvd",
    "borough": "Q",
    "lat": 40.714441,
    "lon": -73.831008,
    "daytime_routes": [
      "E",
      "F"
    ],
    "structure": "Subway",
    "ada": true
  },
  "F07": {
    "stop_id": "F07",
    "station_id": "260",
    "complex_id": "260",
    "name": "75 Av",
    "line": "Queens Blvd",
    "borough": "Q",
    "lat": 40.718331,
    "lon": -73.837324,
    "daytime_routes": [
      "E",
      "F"
    ],
    "structure": "Subway",
    "ada": false
  },
  "G08": {
    "stop_id": "G08",
    "station_id": "261",
    "complex_id": "261",
    "name": "Forest Hills-71 Av",
    "line": "Queens Blvd",
    "borough": "Q",
    "lat": 40.721691,
    "lon": -73.844521,
    "daytime_routes": [
      "E",
      "F",
      "M",
      "R"
    ],
    "structure": "Subway",
    "ada": true
  },
  "G09": {
    "stop_id": "G09",
    "station_id": "262",
    "complex_id": "262",
    "name": "67 Av",
    "line": "Queens Blvd",
    "borough": "Q",
    "lat": 40.726523,
    "lon": -73.852719,
    "daytime_routes": [
      "M",
      "R"
    ],
    "structure": "Subway",
    "ada": false
  },
  "G10": {
    "stop_id": "G10",
    "station_id": "263",
    "complex_id": "263",
    "name": "63 Dr-Rego Park",
    "line": "Queens Blvd",
    "borough": "Q",
    "lat": 40.729846,
    "lon": -73.861604,
    "daytime_routes": [
      "M",
      "R"
    ],
    "structure": "Subway",
    "ada": false
  },
  "G11": {
    "stop_id": "G11",
    "station_id": "264",
    "complex_id": "264",
    "name": "Woodhaven Blvd",
    "line": "Queens Blvd",
    "borough": "Q",
    "lat": 40.733106,
    "lon": -73.869229,
    "daytime_routes": [
      "M",
      "R"
    ],
    "structure": "Subway",
    "ada": false
  },
  "G12": {
    "stop_id": "G12",
    "station_id": "265",
    "complex_id": "265",
    "name": "Grand Av-Newtown",
    "line": "Queens Blvd",
    "borough": "Q",
    "lat": 40.737015,
    "lon": -73.877223,
    "daytime_routes": [
      "M",
      "R"
    ],
    "structure": "Subway",
    "ada": false
  },
  "G13": {
    "stop_id": "G13",
    "station_id": "266",
    "complex_id": "266",
    "name": "Elmhurst Av",
    "line": "Queens Blvd",
    "borough": "Q",
    "lat": 40.742454,
    "lon": -73.882017,
    "daytime_routes": [
      "M",
      "R"
    ],
    "structure": "Subway",
    "ada": false
  },
  "G14": {
    "stop_id": "G14",
    "station_id": "267",
    "complex_id": "616",
    "name": "Jackson Hts-Roosevelt Av",
    "line": "Queens Blvd",
    "borough": "Q",
    "lat": 40.746644,
    "lon": -73.891338,
    "daytime_routes": [
      "E",
      "F",
      "M",
      "R"
    ],
    "structure": "Subway",
    "ada": true
  },
  "G15": {
    "stop_id": "G15",
    "station_id": "268",
    "complex_id": "268",
    "name": "65 St",
    "line": "Queens Blvd",
    "borough": "Q",
    "lat": 40.749669,
    "lon": -73.898453,
    "daytime_routes": [
      "M",
      "R"
    ],
    "structure": "Subway",
    "ada": false
  },
  "G16": {
    "stop_id": "G16",
    "station_id": "269",
    "complex_id": "269",
    "name": "Northern Blvd",
    "line": "Queens Blvd",
    "borough": "Q",
    "lat": 40.752885,
    "lon": -73.906006,
    "daytime_routes": [
      "M",
      "R"
    ],
    "structure": "Subway",
    "ada": true
  },
  "G18": {
    "stop_id": "G18",
    "station_id": "270",
    "complex_id": "270",
    "name": "46 St",
    "line": "Queens Blvd",
    "borough": "Q",
    "lat": 40.756312,
    "lon": -73.913333,
    "daytime_routes": [
      "M",
      "R"
    ],
    "structure": "Subway",
    "ada": false
  },
  "G19": {
    "stop_id": "G19",
    "station_id": "271",
    "complex_id": "271",
    "name": "Steinway St",
    "line": "Queens Blvd",
    "borough": "Q",
    "lat": 40.756879,
    "lon": -73.92074,
    "daytime_routes": [
      "M",
      "R"
    ],
    "structure": "Subway",
    "ada": false
  },
  "G20": {
    "stop_id": "G20",
    "station_id": "272",
    "complex_id": "272",
    "name": "36 St",
    "line": "Queens Blvd",
    "borough": "Q",
    "lat": 40.752039,
    "lon": -73.928781,
    "daytime_routes": [
      "M",
      "R"
    ],
    "structure": "Subway",
    "ada": false
  },
  "G21": {
    "stop_id": "G21",
    "station_id": "273",
    "complex_id": "273",
    "name": "Queens Plaza",
    "line": "Queens Blvd",
    "borough": "Q",
    "lat": 40.748973,
    "lon": -73.937243,
    "daytime_routes": [
      "E",
      "F",
      "R"
    ],
    "structure": "Subway",
    "ada": true
  },
  "F09": {
    "stop_id": "F09",
    "station_id": "274",
    "complex_id": "606",
    "name": "Court Sq-23 St",
    "line": "Queens Blvd",
    "borough": "Q",
    "lat": 40.747846,
    "lon": -73.946,
    "daytime_routes": [
      "E",
      "F"
    ],
    "structure": "Subway",
    "ada": true
  },
  "F11": {
    "stop_id": "F11",
    "station_id": "275",
    "complex_id": "612",
    "name": "Lexington Av/53 St",
    "line": "Queens Blvd",
    "borough": "M",
    "lat": 40.757552,
    "lon": -73.969055,
    "daytime_routes": [
      "E",
      "F"
    ],
    "structure": "Subway",
    "ada": true
  },
  "F12": {
    "stop_id": "F12",
    "station_id": "276",
    "complex_id": "276",
    "name": "5 Av/53 St",
    "line": "Queens Blvd",
    "borough": "M",
    "lat": 40.760167,
    "lon": -73.975224,
    "daytime_routes": [
      "E",
      "F"
    ],
    "structure": "Subway",
    "ada": false
  },
  "D14": {
    "stop_id": "D14",
    "station_id": "277",
    "complex_id": "277",
    "name": "7 Av",
    "line": "Queens Blvd",
    "borough": "M",
    "lat": 40.762862,
    "lon": -73.981637,
    "daytime_routes": [
      "E",
      "B",
      "D"
    ],
    "structure": "Subway",
    "ada": false
  },
  "G05": {
    "stop_id": "G05",
    "station_id": "278",
    "complex_id": "278",
    "name": "Jamaica Center-Parsons/Archer",
    "line": "Queens - Archer",
    "borough": "Q",
    "lat": 40.702147,
    "lon": -73.801109,
    "daytime_routes": [
      "E",
      "J",
      "Z"
    ],
    "structure": "Subway",
    "ada": true
  },
  "G06": {
    "stop_id": "G06",
    "station_id": "279",
    "complex_id": "279",
    "name": "Sutphin Blvd-Archer Av-JFK Airport",
    "line": "Queens - Archer",
    "borough": "Q",
    "lat": 40.700486,
    "lon": -73.807969,
    "daytime_routes": [
      "E",
      "J",
      "Z"
    ],
    "structure": "Subway",
    "ada": true
  },
  "G07": {
    "stop_id": "G07",
    "station_id": "280",
    "complex_id": "280",
    "name": "Jamaica-Van Wyck",
    "line": "Queens - Archer",
    "borough": "Q",
    "lat": 40.702566,
    "lon": -73.816859,
    "daytime_routes": [
      "E"
    ],
    "structure": "Subway",
    "ada": true
  },
  "G22": {
    "stop_id": "G22",
    "station_id": "281",
    "complex_id": "606",
    "name": "Court Sq",
    "line": "Crosstown",
    "borough": "Q",
    "lat": 40.746554,
    "lon": -73.943832,
    "daytime_routes": [
      "G"
    ],
    "structure": "Subway",
    "ada": true
  },
  "G24": {
    "stop_id": "G24",
    "station_id": "282",
    "complex_id": "282",
    "name": "21 St",
    "line": "Crosstown",
    "borough": "Q",
    "lat": 40.744065,
    "lon": -73.949724,
    "daytime_routes": [
      "G"
    ],
    "structure": "Subway",
    "ada": false
  },
  "G26": {
    "stop_id": "G26",
    "station_id": "283",
    "complex_id": "283",
    "name": "Greenpoint Av",
    "line": "Crosstown",
    "borough": "Bk",
    "lat": 40.731352,
    "lon": -73.954449,
    "daytime_routes": [
      "G"
    ],
    "structure": "Subway",
    "ada": true
  },
  "G28": {
    "stop_id": "G28",
    "station_id": "284",
    "complex_id": "284",
    "name": "Nassau Av",
    "line": "Crosstown",
    "borough": "Bk",
    "lat": 40.724635,
    "lon": -73.951277,
    "daytime_routes": [
      "G"
    ],
    "structure": "Subway",
    "ada": false
  },
  "G29": {
    "stop_id": "G29",
    "station_id": "285",
    "complex_id": "629",
    "name": "Metropolitan Av",
    "line": "Crosstown",
    "borough": "Bk",
    "lat": 40.712792,
    "lon": -73.951418,
    "daytime_routes": [
      "G"
    ],
    "structure": "Subway",
    "ada": true
  },
  "G30": {
    "stop_id": "G30",
    "station_id": "286",
    "complex_id": "286",
    "name": "Broadway",
    "line": "Crosstown",
    "borough": "Bk",
    "lat": 40.706092,
    "lon": -73.950308,
    "daytime_routes": [
      "G"
    ],
    "structure": "Subway",
    "ada": false
  },
  "G31": {
    "stop_id": "G31",
    "station_id": "287",
    "complex_id": "287",
    "name": "Flushing Av",
    "line": "Crosstown",
    "borough": "Bk",
    "lat": 40.700377,
    "lon": -73.950234,
    "daytime_routes": [
      "G"
    ],
    "structure": "Subway",
    "ada": false
  },
  "G32": {
    "stop_id": "G32",
    "station_id": "288",
    "complex_id": "288",
    "name": "Myrtle-Willoughby Avs",
    "line": "Crosstown",
    "borough": "Bk",
    "lat": 40.694568,
    "lon": -73.949046,
    "daytime_routes": [
      "G"
    ],
    "structure": "Subway",
    "ada": false
  },
  "G33": {
    "stop_id": "G33",
    "station_id": "289",
    "complex_id": "289",
    "name": "Bedford-Nostrand Avs",
    "line": "Crosstown",
    "borough": "Bk",
    "lat": 40.689627,
    "lon": -73.953522,
    "daytime_routes": [
      "G"
    ],
    "structure": "Subway",
    "ada": false
  },
  "G34": {
    "stop_id": "G34",
    "station_id": "290",
    "complex_id": "290",
    "name": "Classon Av",
    "line": "Crosstown",
    "borough": "Bk",
    "lat": 40.688873,
    "lon": -73.96007,
    "daytime_routes": [
      "G"
    ],
    "structure": "Subway",
    "ada": false
  },
  "G35": {
    "stop_id": "G35",
    "station_id": "291",
    "complex_id": "291",
    "name": "Clinton-Washington Avs",
    "line": "Crosstown",
    "borough": "Bk",
    "lat": 40.688089,
    "lon": -73.966839,
    "daytime_routes": [
      "G"
    ],
    "structure": "Subway",
    "ada": false
  },
  "G36": {
    "stop_id": "G36",
    "station_id": "292",
    "complex_id": "292",
    "name": "Fulton St",
    "line": "Crosstown",
    "borough": "Bk",
    "lat": 40.687119,
    "lon": -73.975375,
    "daytime_routes": [
      "G"
    ],
    "structure": "Subway",
    "ada": false
  },
  "101": {
    "stop_id": "101",
    "station_id": "293",
    "complex_id": "293",
    "name": "Van Cortlandt Park-242 St",
    "line": "Broadway - 7Av",
    "borough": "Bx",
    "lat": 40.889248,
    "lon": -73.898583,
    "daytime_routes": [
      "1"
    ],
    "structure": "Elevated",
    "ada": false
  },
  "103": {
    "stop_id": "103",
    "station_id": "294",
    "complex_id": "294",
    "name": "238 St",
    "line": "Broadway - 7Av",
    "borough": "Bx",
    "lat": 40.884667,
    "lon": -73.90087,
    "daytime_routes": [
      "1"
    ],
    "structure": "Elevated",
    "ada": false
  },
  "104": {
    "stop_id": "104",
    "station_id": "295",
    "complex_id": "295",
    "name": "231 St",
    "line": "Broadway - 7Av",
    "borough": "Bx",
    "lat": 40.878856,
    "lon": -73.904834,
    "daytime_routes": [
      "1"
    ],
    "structure": "Elevated",
    "ada": true
  },
  "106": {
    "stop_id": "106",
    "station_id": "296",
    "complex_id": "296",
    "name": "Marble Hill-225 St",
    "line": "Broadway - 7Av",
    "borough": "M",
    "lat": 40.874561,
    "lon": -73.909831,
    "daytime_routes": [
      "1"
    ],
    "structure": "Elevated",
    "ada": false
  },
  "107": {
    "stop_id": "107",
    "station_id": "297",
    "complex_id": "297",
    "name": "215 St",
    "line": "Broadway - 7Av",
    "borough": "M",
    "lat": 40.869444,
    "lon": -73.915279,
    "daytime_routes": [
      "1"
    ],
    "structure": "Elevated",
    "ada": false
  },
  "108": {
    "stop_id": "108",
    "station_id": "298",
    "complex_id": "298",
    "name": "207 St",
    "line": "Broadway - 7Av",
    "borough": "M",
    "lat": 40.864621,
    "lon": -73.918822,
    "daytime_routes": [
      "1"
    ],
    "structure": "Elevated",
    "ada": false
  },
  "109": {
    "stop_id": "109",
    "station_id": "299",
    "complex_id": "299",
    "name": "Dyckman St",
    "line": "Broadway - 7Av",
    "borough": "M",
    "lat": 40.860531,
    "lon": -73.925536,
    "daytime_routes": [
      "1"
    ],
    "structure": "Elevated",
    "ada": true
  },
  "110": {
    "stop_id": "110",
    "station_id": "300",
    "complex_id": "300",
    "name": "191 St",
    "line": "Broadway - 7Av",
    "borough": "M",
    "lat": 40.855225,
    "lon": -73.929412,
    "daytime_routes": [
      "1"
    ],
    "structure": "Subway",
    "ada": false
  },
  "111": {
    "stop_id": "111",
    "station_id": "301",
    "complex_id": "301",
    "name": "181 St",
    "line": "Broadway - 7Av",
    "borough": "M",
    "lat": 40.849505,
    "lon": -73.933596,
    "daytime_routes": [
      "1"
    ],
    "structure": "Subway",
    "ada": false
  },
  "112": {
    "stop_id": "112",
    "station_id": "302",
    "complex_id": "605",
    "name": "168 St-Washington Hts",
    "line": "Broadway - 7Av",
    "borough": "M",
    "lat": 40.840556,
    "lon": -73.940133,
    "daytime_routes": [
      "1"
    ],
    "structure": "Subway",
    "ada": false
  },
  "113": {
    "stop_id": "113",
    "station_id": "303",
    "complex_id": "303",
    "name": "157 St",
    "line": "Broadway - 7Av",
    "borough": "M",
    "lat": 40.834041,
    "lon": -73.94489,
    "daytime_routes": [
      "1"
    ],
    "structure": "Subway",
    "ada": false
  },
  "114": {
    "stop_id": "114",
    "station_id": "304",
    "complex_id": "304",
    "name": "145 St",
    "line": "Broadway - 7Av",
    "borough": "M",
    "lat": 40.826551,
    "lon": -73.95036,
    "daytime_routes": [
      "1"
    ],
    "structure": "Subway",
    "ada": false
  },
  "115": {
    "stop_id": "115",
    "station_id": "305",
    "complex_id": "305",
    "name": "137 St-City College",
    "line": "Broadway - 7Av",
    "borough": "M",
    "lat": 40.822008,
    "lon": -73.953676,
    "daytime_routes": [
      "1"
    ],
    "structure": "Subway",
    "ada": true
  },
  "116": {
    "stop_id": "116",
    "station_id": "306",
    "complex_id": "306",
    "name": "125 St",
    "line": "Broadway - 7Av",
    "borough": "M",
    "lat": 40.815581,
    "lon": -73.958372,
    "daytime_routes": [
      "1"
    ],
    "structure": "Elevated",
    "ada": false
  },
  "117": {
    "stop_id": "117",
    "station_id": "307",
    "complex_id": "307",
    "name": "116 St-Columbia University",
    "line": "Broadway - 7Av",
    "borough": "M",
    "lat": 40.807722,
    "lon": -73.96411,
    "daytime_routes": [
      "1"
    ],
    "structure": "Subway",
    "ada": false
  },
  "118": {
    "stop_id": "118",
    "station_id": "308",
    "complex_id": "308",
    "name": "Cathedral Pkwy (110 St)",
    "line": "Broadway - 7Av",
    "borough": "M",
    "lat": 40.803967,
    "lon": -73.966847,
    "daytime_routes": [
      "1"
    ],
    "structure": "Subway",
    "ada": false
  },
  "119": {
    "stop_id": "119",
    "station_id": "309",
    "complex_id": "309",
    "name": "103 St",
    "line": "Broadway - 7Av",
    "borough": "M",
    "lat": 40.799446,
    "lon": -73.968379,
    "daytime_routes": [
      "1"
    ],
    "structure": "Subway",
    "ada": false
  },
  "120": {
    "stop_id": "120",
    "station_id": "310",
    "complex_id": "310",
    "name": "96 St",
    "line": "Broadway - 7Av",
    "borough": "M",
    "lat": 40.793919,
    "lon": -73.972323,
    "daytime_routes": [
      "1",
      "2",
      "3"
    ],
    "structure": "Subway",
    "ada": true
  },
  "121": {
    "stop_id": "121",
    "station_id": "311",
    "complex_id": "311",
    "name": "86 St",
    "line": "Broadway - 7Av",
    "borough": "M",
    "lat": 40.788644,
    "lon": -73.976218,
    "daytime_routes": [
      "1"
    ],
    "structure": "Subway",
    "ada": false
  },
  "122": {
    "stop_id": "122",
    "station_id": "312",
    "complex_id": "312",
    "name": "79 St",
    "line": "Broadway - 7Av",
    "borough": "M",
    "lat": 40.783934,
    "lon": -73.979917,
    "daytime_routes": [
      "1"
    ],
    "structure": "Subway",
    "ada": false
  },
  "123": {
    "stop_id": "123",
    "station_id": "313",
    "complex_id": "313",
    "name": "72 St",
    "line": "Broadway - 7Av",
    "borough": "M",
    "lat": 40.778453,
    "lon": -73.98197,
    "daytime_routes": [
      "1",
      "2",
      "3"
    ],
    "structure": "Subway",
    "ada": true
  },
  "124": {
    "stop_id": "124",
    "station_id": "314",
    "complex_id": "314",
    "name": "66 St-Lincoln Center",
    "line": "Broadway - 7Av",
    "borough": "M",
    "lat": 40.77344,
    "lon": -73.982209,
    "daytime_routes": [
      "1"
    ],
    "structure": "Subway",
    "ada": true
  },
  "125": {
    "stop_id": "125",
    "station_id": "315",
    "complex_id": "614",
    "name": "59 St-Columbus Circle",
    "line": "Broadway - 7Av",
    "borough": "M",
    "lat": 40.768247,
    "lon": -73.981929,
    "daytime_routes": [
      "1"
    ],
    "structure": "Subway",
    "ada": true
  },
  "126": {
    "stop_id": "126",
    "station_id": "316",
    "complex_id": "316",
    "name": "50 St",
    "line": "Broadway - 7Av",
    "borough": "M",
    "lat": 40.761728,
    "lon": -73.983849,
    "daytime_routes": [
      "1"
    ],
    "structure": "Subway",
    "ada": false
  },
  "127": {
    "stop_id": "127",
    "station_id": "317",
    "complex_id": "611",
    "name": "Times Sq-42 St",
    "line": "Broadway - 7Av",
    "borough": "M",
    "lat": 40.75529,
    "lon": -73.987495,
    "daytime_routes": [
      "1",
      "2",
      "3"
    ],
    "structure": "Subway",
    "ada": true
  },
  "128": {
    "stop_id": "128",
    "station_id": "318",
    "complex_id": "318",
    "name": "34 St-Penn Station",
    "line": "Broadway - 7Av",
    "borough": "M",
    "lat": 40.750373,
    "lon": -73.991057,
    "daytime_routes": [
      "1",
      "2",
      "3"
    ],
    "structure": "Subway",
    "ada": true
  },
  "129": {
    "stop_id": "129",
    "station_id": "319",
    "complex_id": "319",
    "name": "28 St",
    "line": "Broadway - 7Av",
    "borough": "M",
    "lat": 40.747215,
    "lon": -73.993365,
    "daytime_routes": [
      "1"
    ],
    "structure": "Subway",
    "ada": false
  },
  "130": {
    "stop_id": "130",
    "station_id": "320",
    "complex_id": "320",
    "name": "23 St",
    "line": "Broadway - 7Av",
    "borough": "M",
    "lat": 40.744081,
    "lon": -73.995657,
    "daytime_routes": [
      "1"
    ],
    "structure": "Subway",
    "ada": false
  },
  "131": {
    "stop_id": "131",
    "station_id": "321",
    "complex_id": "321",
    "name": "18 St",
    "line": "Broadway - 7Av",
    "borough": "M",
    "lat": 40.74104,
    "lon": -73.997871,
    "daytime_routes": [
      "1"
    ],
    "structure": "Subway",
    "ada": false
  },
  "132": {
    "stop_id": "132",
    "station_id": "322",
    "complex_id": "601",
    "name": "14 St",
    "line": "Broadway - 7Av",
    "borough": "M",
    "lat": 40.737826,
    "lon": -74.000201,
    "daytime_routes": [
      "1",
      "2",
      "3"
    ],
    "structure": "Subway",
    "ada": true
  },
  "133": {
    "stop_id": "133",
    "station_id": "323",
    "complex_id": "323",
    "name": "Christopher St-Stonewall",
    "line": "Broadway - 7Av",
    "borough": "M",
    "lat": 40.733422,
    "lon": -74.002906,
    "daytime_routes": [
      "1"
    ],
    "structure": "Subway",
    "ada": false
  },
  "134": {
    "stop_id": "134",
    "station_id": "324",
    "complex_id": "324",
    "name": "Houston St",
    "line": "Broadway - 7Av",
    "borough": "M",
    "lat": 40.728251,
    "lon": -74.005367,
    "daytime_routes": [
      "1"
    ],
    "structure": "Subway",
    "ada": false
  },
  "135": {
    "stop_id": "135",
    "station_id": "325",
    "complex_id": "325",
    "name": "Canal St",
    "line": "Broadway - 7Av",
    "borough": "M",
    "lat": 40.722854,
    "lon": -74.006277,
    "daytime_routes": [
      "1"
    ],
    "structure": "Subway",
    "ada": false
  },
  "136": {
    "stop_id": "136",
    "station_id": "326",
    "complex_id": "326",
    "name": "Franklin St",
    "line": "Broadway - 7Av",
    "borough": "M",
    "lat": 40.719318,
    "lon": -74.006886,
    "daytime_routes": [
      "1"
    ],
    "structure": "Subway",
    "ada": false
  },
  "137": {
    "stop_id": "137",
    "station_id": "327",
    "complex_id": "327",
    "name": "Chambers St",
    "line": "Broadway - 7Av",
    "borough": "M",
    "lat": 40.715478,
    "lon": -74.009266,
    "daytime_routes": [
      "1",
      "2",
      "3"
    ],
    "structure": "Subway",
    "ada": true
  },
  "138": {
    "stop_id": "138",
    "station_id": "328",
    "complex_id": "328",
    "name": "WTC Cortlandt",
    "line": "Broadway - 7Av",
    "borough": "M",
    "lat": 40.711835,
    "lon": -74.012188,
    "daytime_routes": [
      "1"
    ],
    "structure": "Subway",
    "ada": true
  },
  "139": {
    "stop_id": "139",
    "station_id": "329",
    "complex_id": "329",
    "name": "Rector St",
    "line": "Broadway - 7Av",
    "borough": "M",
    "lat": 40.707513,
    "lon": -74.013783,
    "daytime_routes": [
      "1"
    ],
    "structure": "Subway",
    "ada": false
  },
  "142": {
    "stop_id": "142",
    "station_id": "330",
    "complex_id": "635",
    "name": "South Ferry",
    "line": "Broadway - 7Av",
    "borough": "M",
    "lat": 40.702068,
    "lon": -74.013664,
    "daytime_routes": [
      "1"
    ],
    "structure": "Subway",
    "ada": true
  },
  "228": {
    "stop_id": "228",
    "station_id": "331",
    "complex_id": "624",
    "name": "Park Place",
    "line": "Clark St",
    "borough": "M",
    "lat": 40.713051,
    "lon": -74.008811,
    "daytime_routes": [
      "2",
      "3"
    ],
    "structure": "Subway",
    "ada": false
  },
  "229": {
    "stop_id": "229",
    "station_id": "332",
    "complex_id": "628",
    "name": "Fulton St",
    "line": "Clark St",
    "borough": "M",
    "lat": 40.709416,
    "lon": -74.006571,
    "daytime_routes": [
      "2",
      "3"
    ],
    "structure": "Subway",
    "ada": true
  },